Type, Time, Epoch time,  Latitude, Longitude, Altitude, Satellites, Roll, Pitch, Heading
GPGGA, Fri Sep 23 11:27:42 2022, 1663912662, 12.891971, 77.641395, 847.6, 11
AOATT, Fri Sep 23 11:27:42 2022, 1663912662, , , , , -0.77, -0.78, 35.96
AOGPS, Fri Sep 23 11:27:42 2022, 1663912662, 12.891970, 77.641396, 847.4, 11
GPGGA, Fri Sep 23 11:27:42 2022, 1663912662, 12.891971, 77.641396, 847.6, 11
AOATT, Fri Sep 23 11:27:42 2022, 1663912662, , , , , -0.77, -0.78, 35.96
AOGPS, Fri Sep 23 11:27:42 2022, 1663912662, 12.891969, 77.641396, 847.4, 11
GPGGA, Fri Sep 23 11:27:42 2022, 1663912662, 12.891971, 77.641396, 847.6, 11
GPRMC, Fri Sep 23 11:27:42 2022, 1663912662, 12.891971, 77.641396
AOATT, Fri Sep 23 11:27:42 2022, 1663912662, , , , , -0.77, -0.78, 35.97
AOGPS, Fri Sep 23 11:27:43 2022, 1663912663, 12.891969, 77.641396, 847.4, 11
GPGGA, Fri Sep 23 11:27:43 2022, 1663912663, 12.891971, 77.641396, 847.5, 11
GPRMC, Fri Sep 23 11:27:43 2022, 1663912663, 12.891971, 77.641396
AOATT, Fri Sep 23 11:27:43 2022, 1663912663, , , , , -0.77, -0.78, 35.97
AOGPS, Fri Sep 23 11:27:43 2022, 1663912663, 12.891969, 77.641396, 847.3, 11
GPGGA, Fri Sep 23 11:27:43 2022, 1663912663, 12.891970, 77.641396, 847.5, 11
GPRMC, Fri Sep 23 11:27:43 2022, 1663912663, 12.891970, 77.641396
AOGPS, Fri Sep 23 11:27:43 2022, 1663912663, 12.891969, 77.641396, 847.3, 11
GPGGA, Fri Sep 23 11:27:43 2022, 1663912663, 12.891970, 77.641396, 847.5, 11
GPRMC, Fri Sep 23 11:27:43 2022, 1663912663, 12.891970, 77.641396
AOGPS, Fri Sep 23 11:27:43 2022, 1663912663, 12.891969, 77.641397, 847.3, 11
GPGGA, Fri Sep 23 11:27:43 2022, 1663912663, 12.891970, 77.641396, 847.5, 11
AOGPS, Fri Sep 23 11:27:43 2022, 1663912663, 12.891969, 77.641397, 847.3, 11
GPGGA, Fri Sep 23 11:27:43 2022, 1663912663, 12.891970, 77.641396, 847.4, 11
GPRMC, Fri Sep 23 11:27:43 2022, 1663912663, 12.891970, 77.641396
AOGPS, Fri Sep 23 11:27:43 2022, 1663912663, 12.891968, 77.641397, 847.3, 11
GPGGA, Fri Sep 23 11:27:44 2022, 1663912664, 12.891969, 77.641396, 847.4, 11
AOGPS, Fri Sep 23 11:27:44 2022, 1663912664, 12.891968, 77.641397, 847.2, 11
GPGGA, Fri Sep 23 11:27:44 2022, 1663912664, 12.891969, 77.641396, 847.4, 11
GPRMC, Fri Sep 23 11:27:44 2022, 1663912664, 12.891969, 77.641396
AOGPS, Fri Sep 23 11:27:44 2022, 1663912664, 12.891968, 77.641397, 847.2, 11
GPGGA, Fri Sep 23 11:27:44 2022, 1663912664, 12.891969, 77.641396, 847.3, 11
GPRMC, Fri Sep 23 11:27:44 2022, 1663912664, 12.891969, 77.641396
AOATT, Fri Sep 23 11:27:44 2022, 1663912664, , , , , -0.77, -0.77, 36.01
AOGPS, Fri Sep 23 11:27:44 2022, 1663912664, 12.891967, 77.641397, 847.1, 11
GPGGA, Fri Sep 23 11:27:44 2022, 1663912664, 12.891969, 77.641396, 847.3, 10
GPRMC, Fri Sep 23 11:27:44 2022, 1663912664, 12.891969, 77.641396
AOATT, Fri Sep 23 11:27:44 2022, 1663912664, , , , , -0.77, -0.77, 36.02
AOGPS, Fri Sep 23 11:27:44 2022, 1663912664, 12.891967, 77.641397, 847.1, 10
GPGGA, Fri Sep 23 11:27:44 2022, 1663912664, 12.891969, 77.641396, 847.2, 11
GPRMC, Fri Sep 23 11:27:44 2022, 1663912664, 12.891969, 77.641396
AOATT, Fri Sep 23 11:27:44 2022, 1663912664, , , , , -0.77, -0.77, 36.02
AOGPS, Fri Sep 23 11:27:44 2022, 1663912664, 12.891967, 77.641397, 847.1, 11
GPGGA, Fri Sep 23 11:27:45 2022, 1663912665, 12.891969, 77.641396, 847.2, 11
AOATT, Fri Sep 23 11:27:45 2022, 1663912665, , , , , -0.77, -0.77, 36.03
AOGPS, Fri Sep 23 11:27:45 2022, 1663912665, 12.891967, 77.641397, 847.0, 11
GPGGA, Fri Sep 23 11:27:45 2022, 1663912665, 12.891969, 77.641397, 847.2, 11
GPRMC, Fri Sep 23 11:27:45 2022, 1663912665, 12.891969, 77.641397
AOATT, Fri Sep 23 11:27:45 2022, 1663912665, , , , , -0.77, -0.77, 36.03
AOGPS, Fri Sep 23 11:27:45 2022, 1663912665, 12.891967, 77.641397, 847.0, 11
GPGGA, Fri Sep 23 11:27:45 2022, 1663912665, 12.891968, 77.641397, 847.1, 10
AOATT, Fri Sep 23 11:27:45 2022, 1663912665, , , , , -0.77, -0.77, 36.04
AOGPS, Fri Sep 23 11:27:45 2022, 1663912665, 12.891967, 77.641397, 847.0, 10
GPGGA, Fri Sep 23 11:27:45 2022, 1663912665, 12.891968, 77.641397, 847.1, 10
GPRMC, Fri Sep 23 11:27:45 2022, 1663912665, 12.891968, 77.641397
AOATT, Fri Sep 23 11:27:45 2022, 1663912665, , , , , -0.77, -0.77, 36.05
AOGPS, Fri Sep 23 11:27:45 2022, 1663912665, 12.891967, 77.641397, 847.0, 10
GPGGA, Fri Sep 23 11:27:45 2022, 1663912665, 12.891968, 77.641397, 847.1, 10
GPRMC, Fri Sep 23 11:27:45 2022, 1663912665, 12.891968, 77.641397
AOATT, Fri Sep 23 11:27:45 2022, 1663912665, , , , , -0.77, -0.77, 36.05
AOGPS, Fri Sep 23 11:27:45 2022, 1663912665, 12.891967, 77.641397, 847.0, 10
GPGGA, Fri Sep 23 11:27:46 2022, 1663912666, 12.891968, 77.641397, 847.1, 10
GPRMC, Fri Sep 23 11:27:46 2022, 1663912666, 12.891968, 77.641397
AOATT, Fri Sep 23 11:27:46 2022, 1663912666, , , , , -0.77, -0.77, 36.06
AOGPS, Fri Sep 23 11:27:46 2022, 1663912666, 12.891967, 77.641397, 847.0, 10
GPGGA, Fri Sep 23 11:27:46 2022, 1663912666, 12.891968, 77.641397, 847.0, 10
GPRMC, Fri Sep 23 11:27:46 2022, 1663912666, 12.891968, 77.641397
AOATT, Fri Sep 23 11:27:46 2022, 1663912666, , , , , -0.77, -0.77, 36.06
AOGPS, Fri Sep 23 11:27:46 2022, 1663912666, 12.891967, 77.641397, 847.0, 10
GPGGA, Fri Sep 23 11:27:46 2022, 1663912666, 12.891968, 77.641397, 847.0, 10
GPRMC, Fri Sep 23 11:27:46 2022, 1663912666, 12.891968, 77.641397
AOATT, Fri Sep 23 11:27:46 2022, 1663912666, , , , , -0.77, -0.77, 36.07
AOGPS, Fri Sep 23 11:27:46 2022, 1663912666, 12.891967, 77.641397, 846.9, 10
GPGGA, Fri Sep 23 11:27:46 2022, 1663912666, 12.891968, 77.641397, 847.0, 10
GPRMC, Fri Sep 23 11:27:46 2022, 1663912666, 12.891968, 77.641397
AOATT, Fri Sep 23 11:27:46 2022, 1663912666, , , , , -0.77, -0.77, 36.07
AOGPS, Fri Sep 23 11:27:46 2022, 1663912666, 12.891967, 77.641397, 846.9, 10
GPGGA, Fri Sep 23 11:27:46 2022, 1663912666, 12.891968, 77.641397, 847.0, 10
GPRMC, Fri Sep 23 11:27:46 2022, 1663912666, 12.891968, 77.641397
AOATT, Fri Sep 23 11:27:46 2022, 1663912666, , , , , -0.77, -0.77, 36.08
AOGPS, Fri Sep 23 11:27:47 2022, 1663912667, 12.891967, 77.641397, 846.9, 10
GPGGA, Fri Sep 23 11:27:47 2022, 1663912667, 12.891968, 77.641397, 847.0, 10
GPRMC, Fri Sep 23 11:27:47 2022, 1663912667, 12.891968, 77.641397
AOATT, Fri Sep 23 11:27:47 2022, 1663912667, , , , , -0.77, -0.77, 36.08
AOGPS, Fri Sep 23 11:27:47 2022, 1663912667, 12.891967, 77.641397, 846.9, 10
GPGGA, Fri Sep 23 11:27:47 2022, 1663912667, 12.891968, 77.641397, 847.0, 10
GPRMC, Fri Sep 23 11:27:47 2022, 1663912667, 12.891968, 77.641397
AOATT, Fri Sep 23 11:27:47 2022, 1663912667, , , , , -0.77, -0.77, 36.09
AOGPS, Fri Sep 23 11:27:47 2022, 1663912667, 12.891967, 77.641397, 846.9, 10
GPGGA, Fri Sep 23 11:27:47 2022, 1663912667, 12.891968, 77.641397, 847.0, 10
AOATT, Fri Sep 23 11:27:47 2022, 1663912667, , , , , -0.77, -0.77, 36.09
AOGPS, Fri Sep 23 11:27:47 2022, 1663912667, 12.891967, 77.641397, 846.9, 10
GPGGA, Fri Sep 23 11:27:47 2022, 1663912667, 12.891968, 77.641397, 846.9, 10
GPRMC, Fri Sep 23 11:27:47 2022, 1663912667, 12.891968, 77.641397
AOATT, Fri Sep 23 11:27:47 2022, 1663912667, , , , , -0.77, -0.77, 36.10
AOGPS, Fri Sep 23 11:27:47 2022, 1663912667, 12.891967, 77.641397, 846.9, 10
GPGGA, Fri Sep 23 11:27:47 2022, 1663912667, 12.891968, 77.641397, 846.9, 10
AOGPS, Fri Sep 23 11:27:47 2022, 1663912667, 12.891967, 77.641397, 846.9, 10
GPGGA, Fri Sep 23 11:27:48 2022, 1663912668, 12.891967, 77.641397, 846.9, 10
GPRMC, Fri Sep 23 11:27:48 2022, 1663912668, 12.891967, 77.641397
AOATT, Fri Sep 23 11:27:48 2022, 1663912668, , , , , -0.77, -0.77, 36.11
AOGPS, Fri Sep 23 11:27:48 2022, 1663912668, 12.891967, 77.641397, 846.9, 10
GPGGA, Fri Sep 23 11:27:48 2022, 1663912668, 12.891967, 77.641397, 846.9, 10
AOATT, Fri Sep 23 11:27:48 2022, 1663912668, , , , , -0.77, -0.77, 36.12
AOGPS, Fri Sep 23 11:27:48 2022, 1663912668, 12.891966, 77.641397, 846.9, 10
GPGGA, Fri Sep 23 11:27:48 2022, 1663912668, 12.891967, 77.641397, 846.9, 10
GPRMC, Fri Sep 23 11:27:48 2022, 1663912668, 12.891967, 77.641397
AOATT, Fri Sep 23 11:27:48 2022, 1663912668, , , , , -0.77, -0.77, 36.12
AOGPS, Fri Sep 23 11:27:48 2022, 1663912668, 12.891966, 77.641397, 846.9, 10
GPGGA, Fri Sep 23 11:27:48 2022, 1663912668, 12.891966, 77.641397, 846.9, 10
GPRMC, Fri Sep 23 11:27:48 2022, 1663912668, 12.891966, 77.641397
AOATT, Fri Sep 23 11:27:48 2022, 1663912668, , , , , -0.77, -0.77, 36.13
AOGPS, Fri Sep 23 11:27:48 2022, 1663912668, 12.891966, 77.641397, 846.9, 10
GPGGA, Fri Sep 23 11:27:48 2022, 1663912668, 12.891966, 77.641397, 846.9, 10
GPRMC, Fri Sep 23 11:27:48 2022, 1663912668, 12.891966, 77.641397
AOATT, Fri Sep 23 11:27:48 2022, 1663912668, , , , , -0.77, -0.77, 36.13
AOGPS, Fri Sep 23 11:27:48 2022, 1663912668, 12.891966, 77.641397, 846.9, 10
GPGGA, Fri Sep 23 11:27:49 2022, 1663912669, 12.891966, 77.641396, 846.9, 10
GPRMC, Fri Sep 23 11:27:49 2022, 1663912669, 12.891966, 77.641396
AOATT, Fri Sep 23 11:27:49 2022, 1663912669, , , , , -0.77, -0.77, 36.14
AOGPS, Fri Sep 23 11:27:49 2022, 1663912669, 12.891965, 77.641397, 846.9, 10
GPGGA, Fri Sep 23 11:27:49 2022, 1663912669, 12.891966, 77.641396, 846.9, 10
AOATT, Fri Sep 23 11:27:49 2022, 1663912669, , , , , -0.77, -0.77, 36.14
AOGPS, Fri Sep 23 11:27:49 2022, 1663912669, 12.891965, 77.641397, 846.8, 10
GPGGA, Fri Sep 23 11:27:49 2022, 1663912669, 12.891965, 77.641396, 846.9, 10
GPRMC, Fri Sep 23 11:27:49 2022, 1663912669, 12.891965, 77.641396
AOATT, Fri Sep 23 11:27:49 2022, 1663912669, , , , , -0.77, -0.77, 36.15
AOGPS, Fri Sep 23 11:27:49 2022, 1663912669, 12.891965, 77.641397, 846.8, 10
GPGGA, Fri Sep 23 11:27:49 2022, 1663912669, 12.891965, 77.641396, 846.9, 10
GPRMC, Fri Sep 23 11:27:49 2022, 1663912669, 12.891965, 77.641396
AOATT, Fri Sep 23 11:27:49 2022, 1663912669, , , , , -0.77, -0.77, 36.15
AOGPS, Fri Sep 23 11:27:49 2022, 1663912669, 12.891965, 77.641397, 846.8, 10
GPGGA, Fri Sep 23 11:27:49 2022, 1663912669, 12.891965, 77.641396, 846.9, 10
GPRMC, Fri Sep 23 11:27:49 2022, 1663912669, 12.891965, 77.641396
AOATT, Fri Sep 23 11:27:49 2022, 1663912669, , , , , -0.77, -0.77, 36.16
AOGPS, Fri Sep 23 11:27:50 2022, 1663912670, 12.891965, 77.641397, 846.8, 10
GPGGA, Fri Sep 23 11:27:50 2022, 1663912670, 12.891964, 77.641396, 846.9, 10
GPRMC, Fri Sep 23 11:27:50 2022, 1663912670, 12.891964, 77.641396
AOATT, Fri Sep 23 11:27:50 2022, 1663912670, , , , , -0.77, -0.77, 36.16
AOGPS, Fri Sep 23 11:27:50 2022, 1663912670, 12.891965, 77.641397, 846.8, 10
GPGGA, Fri Sep 23 11:27:50 2022, 1663912670, 12.891964, 77.641396, 846.8, 10
GPRMC, Fri Sep 23 11:27:50 2022, 1663912670, 12.891964, 77.641396
AOATT, Fri Sep 23 11:27:50 2022, 1663912670, , , , , -0.77, -0.77, 36.17
AOGPS, Fri Sep 23 11:27:50 2022, 1663912670, 12.891965, 77.641397, 846.8, 10
GPGGA, Fri Sep 23 11:27:50 2022, 1663912670, 12.891964, 77.641396, 846.8, 10
GPRMC, Fri Sep 23 11:27:50 2022, 1663912670, 12.891964, 77.641396
AOATT, Fri Sep 23 11:27:50 2022, 1663912670, , , , , -0.77, -0.77, 36.18
AOGPS, Fri Sep 23 11:27:50 2022, 1663912670, 12.891964, 77.641397, 846.8, 10
GPGGA, Fri Sep 23 11:27:50 2022, 1663912670, 12.891964, 77.641396, 846.8, 10
AOATT, Fri Sep 23 11:27:50 2022, 1663912670, , , , , -0.77, -0.77, 36.18
AOGPS, Fri Sep 23 11:27:50 2022, 1663912670, 12.891964, 77.641397, 846.8, 10
GPGGA, Fri Sep 23 11:27:50 2022, 1663912670, 12.891964, 77.641396, 846.8, 10
AOATT, Fri Sep 23 11:27:50 2022, 1663912670, , , , , -0.77, -0.77, 36.19
AOGPS, Fri Sep 23 11:27:50 2022, 1663912670, 12.891964, 77.641397, 846.8, 10
GPGGA, Fri Sep 23 11:27:51 2022, 1663912671, 12.891964, 77.641396, 846.8, 10
AOATT, Fri Sep 23 11:27:51 2022, 1663912671, , , , , -0.77, -0.77, 36.19
AOGPS, Fri Sep 23 11:27:51 2022, 1663912671, 12.891963, 77.641396, 846.7, 10
GPGGA, Fri Sep 23 11:27:51 2022, 1663912671, 12.891964, 77.641396, 846.8, 10
GPRMC, Fri Sep 23 11:27:51 2022, 1663912671, 12.891964, 77.641396
AOATT, Fri Sep 23 11:27:51 2022, 1663912671, , , , , -0.77, -0.77, 36.19
AOGPS, Fri Sep 23 11:27:51 2022, 1663912671, 12.891963, 77.641396, 846.7, 10
GPGGA, Fri Sep 23 11:27:51 2022, 1663912671, 12.891964, 77.641396, 846.8, 10
GPRMC, Fri Sep 23 11:27:51 2022, 1663912671, 12.891964, 77.641396
AOATT, Fri Sep 23 11:27:51 2022, 1663912671, , , , , -0.77, -0.77, 36.20
AOGPS, Fri Sep 23 11:27:51 2022, 1663912671, 12.891963, 77.641396, 846.7, 10
GPGGA, Fri Sep 23 11:27:51 2022, 1663912671, 12.891964, 77.641396, 846.8, 10
GPRMC, Fri Sep 23 11:27:51 2022, 1663912671, 12.891964, 77.641396
AOATT, Fri Sep 23 11:27:51 2022, 1663912671, , , , , -0.77, -0.77, 36.21
AOGPS, Fri Sep 23 11:27:51 2022, 1663912671, 12.891963, 77.641396, 846.7, 10
GPGGA, Fri Sep 23 11:27:51 2022, 1663912671, 12.891964, 77.641396, 846.8, 10
GPRMC, Fri Sep 23 11:27:51 2022, 1663912671, 12.891964, 77.641396
AOATT, Fri Sep 23 11:27:51 2022, 1663912671, , , , , -0.77, -0.77, 36.21
AOGPS, Fri Sep 23 11:27:52 2022, 1663912672, 12.891962, 77.641396, 846.7, 10
GPGGA, Fri Sep 23 11:27:52 2022, 1663912672, 12.891964, 77.641396, 846.7, 10
GPRMC, Fri Sep 23 11:27:52 2022, 1663912672, 12.891964, 77.641396
AOATT, Fri Sep 23 11:27:52 2022, 1663912672, , , , , -0.77, -0.77, 36.22
AOGPS, Fri Sep 23 11:27:52 2022, 1663912672, 12.891962, 77.641396, 846.7, 10
GPGGA, Fri Sep 23 11:27:52 2022, 1663912672, 12.891964, 77.641396, 846.7, 10
AOATT, Fri Sep 23 11:27:52 2022, 1663912672, , , , , -0.77, -0.77, 36.22
AOGPS, Fri Sep 23 11:27:52 2022, 1663912672, 12.891962, 77.641396, 846.6, 10
GPGGA, Fri Sep 23 11:27:52 2022, 1663912672, 12.891964, 77.641396, 846.7, 10
GPRMC, Fri Sep 23 11:27:52 2022, 1663912672, 12.891964, 77.641396
AOATT, Fri Sep 23 11:27:52 2022, 1663912672, , , , , -0.77, -0.77, 36.23
AOGPS, Fri Sep 23 11:27:52 2022, 1663912672, 12.891962, 77.641396, 846.6, 10
GPGGA, Fri Sep 23 11:27:52 2022, 1663912672, 12.891964, 77.641396, 846.7, 10
GPRMC, Fri Sep 23 11:27:52 2022, 1663912672, 12.891964, 77.641396
AOATT, Fri Sep 23 11:27:52 2022, 1663912672, , , , , -0.77, -0.77, 36.23
AOGPS, Fri Sep 23 11:27:52 2022, 1663912672, 12.891962, 77.641396, 846.6, 10
GPGGA, Fri Sep 23 11:27:52 2022, 1663912672, 12.891964, 77.641396, 846.7, 10
GPRMC, Fri Sep 23 11:27:52 2022, 1663912672, 12.891964, 77.641396
AOATT, Fri Sep 23 11:27:52 2022, 1663912672, , , , , -0.77, -0.77, 36.24
AOGPS, Fri Sep 23 11:27:53 2022, 1663912673, 12.891962, 77.641396, 846.6, 10
AOATT, Fri Sep 23 11:27:53 2022, 1663912673, , , , , -0.77, -0.77, 36.24
AOGPS, Fri Sep 23 11:27:53 2022, 1663912673, 12.891962, 77.641396, 846.6, 10
GPGGA, Fri Sep 23 11:27:53 2022, 1663912673, 12.891964, 77.641396, 846.6, 10
AOATT, Fri Sep 23 11:27:53 2022, 1663912673, , , , , -0.77, -0.77, 36.25
AOGPS, Fri Sep 23 11:27:53 2022, 1663912673, 12.891962, 77.641396, 846.5, 10
GPGGA, Fri Sep 23 11:27:53 2022, 1663912673, 12.891963, 77.641396, 846.6, 10
GPRMC, Fri Sep 23 11:27:53 2022, 1663912673, 12.891963, 77.641396
AOATT, Fri Sep 23 11:27:53 2022, 1663912673, , , , , -0.77, -0.77, 36.25
AOGPS, Fri Sep 23 11:27:53 2022, 1663912673, 12.891962, 77.641396, 846.5, 10
GPGGA, Fri Sep 23 11:27:53 2022, 1663912673, 12.891963, 77.641396, 846.6, 10
AOATT, Fri Sep 23 11:27:53 2022, 1663912673, , , , , -0.77, -0.77, 36.26
AOGPS, Fri Sep 23 11:27:53 2022, 1663912673, 12.891962, 77.641397, 846.5, 10
GPGGA, Fri Sep 23 11:27:53 2022, 1663912673, 12.891964, 77.641396, 846.6, 10
GPRMC, Fri Sep 23 11:27:53 2022, 1663912673, 12.891964, 77.641396
AOATT, Fri Sep 23 11:27:53 2022, 1663912673, , , , , -0.77, -0.77, 36.26
AOGPS, Fri Sep 23 11:27:54 2022, 1663912674, 12.891961, 77.641396, 846.5, 10
GPGGA, Fri Sep 23 11:27:54 2022, 1663912674, 12.891963, 77.641396, 846.6, 10
GPRMC, Fri Sep 23 11:27:54 2022, 1663912674, 12.891963, 77.641396
AOATT, Fri Sep 23 11:27:54 2022, 1663912674, , , , , -0.77, -0.77, 36.27
AOGPS, Fri Sep 23 11:27:54 2022, 1663912674, 12.891961, 77.641396, 846.5, 10
GPGGA, Fri Sep 23 11:27:54 2022, 1663912674, 12.891963, 77.641396, 846.5, 10
GPRMC, Fri Sep 23 11:27:54 2022, 1663912674, 12.891963, 77.641396
AOATT, Fri Sep 23 11:27:54 2022, 1663912674, , , , , -0.77, -0.77, 36.27
AOGPS, Fri Sep 23 11:27:54 2022, 1663912674, 12.891961, 77.641397, 846.4, 10
GPGGA, Fri Sep 23 11:27:54 2022, 1663912674, 12.891963, 77.641396, 846.5, 10
GPRMC, Fri Sep 23 11:27:54 2022, 1663912674, 12.891963, 77.641396
AOGPS, Fri Sep 23 11:27:54 2022, 1663912674, 12.891961, 77.641396, 846.4, 10
GPGGA, Fri Sep 23 11:27:54 2022, 1663912674, 12.891963, 77.641396, 846.5, 10
AOGPS, Fri Sep 23 11:27:54 2022, 1663912674, 12.891960, 77.641396, 846.4, 10
GPGGA, Fri Sep 23 11:27:54 2022, 1663912674, 12.891963, 77.641396, 846.5, 10
AOGPS, Fri Sep 23 11:27:54 2022, 1663912674, 12.891960, 77.641396, 846.4, 10
GPGGA, Fri Sep 23 11:27:55 2022, 1663912675, 12.891963, 77.641396, 846.5, 10
GPRMC, Fri Sep 23 11:27:55 2022, 1663912675, 12.891963, 77.641396
AOATT, Fri Sep 23 11:27:55 2022, 1663912675, , , , , -0.77, -0.77, 36.30
AOGPS, Fri Sep 23 11:27:55 2022, 1663912675, 12.891960, 77.641396, 846.4, 10
GPGGA, Fri Sep 23 11:27:55 2022, 1663912675, 12.891962, 77.641396, 846.5, 10
GPRMC, Fri Sep 23 11:27:55 2022, 1663912675, 12.891962, 77.641396
AOATT, Fri Sep 23 11:27:55 2022, 1663912675, , , , , -0.77, -0.77, 36.30
AOGPS, Fri Sep 23 11:27:55 2022, 1663912675, 12.891959, 77.641396, 846.4, 10
GPGGA, Fri Sep 23 11:27:55 2022, 1663912675, 12.891962, 77.641396, 846.4, 10
GPRMC, Fri Sep 23 11:27:55 2022, 1663912675, 12.891962, 77.641396
AOATT, Fri Sep 23 11:27:55 2022, 1663912675, , , , , -0.77, -0.77, 36.31
AOGPS, Fri Sep 23 11:27:55 2022, 1663912675, 12.891959, 77.641396, 846.3, 10
GPGGA, Fri Sep 23 11:27:55 2022, 1663912675, 12.891962, 77.641396, 846.4, 10
GPRMC, Fri Sep 23 11:27:55 2022, 1663912675, 12.891962, 77.641396
AOATT, Fri Sep 23 11:27:55 2022, 1663912675, , , , , -0.77, -0.77, 36.31
AOGPS, Fri Sep 23 11:27:55 2022, 1663912675, 12.891959, 77.641396, 846.3, 10
GPGGA, Fri Sep 23 11:27:55 2022, 1663912675, 12.891962, 77.641396, 846.4, 10
GPRMC, Fri Sep 23 11:27:55 2022, 1663912675, 12.891962, 77.641396
AOATT, Fri Sep 23 11:27:55 2022, 1663912675, , , , , -0.77, -0.77, 36.31
AOGPS, Fri Sep 23 11:27:55 2022, 1663912675, 12.891959, 77.641396, 846.3, 10
GPGGA, Fri Sep 23 11:27:56 2022, 1663912676, 12.891961, 77.641396, 846.4, 10
AOATT, Fri Sep 23 11:27:56 2022, 1663912676, , , , , -0.77, -0.77, 36.32
AOGPS, Fri Sep 23 11:27:56 2022, 1663912676, 12.891959, 77.641396, 846.2, 10
GPGGA, Fri Sep 23 11:27:56 2022, 1663912676, 12.891961, 77.641396, 846.3, 10
GPRMC, Fri Sep 23 11:27:56 2022, 1663912676, 12.891961, 77.641396
AOGPS, Fri Sep 23 11:27:56 2022, 1663912676, 12.891958, 77.641396, 846.2, 10
GPGGA, Fri Sep 23 11:27:56 2022, 1663912676, 12.891961, 77.641396, 846.3, 10
AOGPS, Fri Sep 23 11:27:56 2022, 1663912676, 12.891957, 77.641396, 846.2, 10
GPGGA, Fri Sep 23 11:27:56 2022, 1663912676, 12.891960, 77.641396, 846.3, 10
AOATT, Fri Sep 23 11:27:56 2022, 1663912676, , , , , -0.77, -0.78, 36.34
AOGPS, Fri Sep 23 11:27:56 2022, 1663912676, 12.891957, 77.641396, 846.2, 10
GPGGA, Fri Sep 23 11:27:56 2022, 1663912676, 12.891960, 77.641396, 846.2, 10
GPRMC, Fri Sep 23 11:27:56 2022, 1663912676, 12.891960, 77.641396
AOATT, Fri Sep 23 11:27:56 2022, 1663912676, , , , , -0.77, -0.78, 36.34
AOGPS, Fri Sep 23 11:27:56 2022, 1663912676, 12.891957, 77.641396, 846.1, 10
GPGGA, Fri Sep 23 11:27:57 2022, 1663912677, 12.891960, 77.641396, 846.2, 10
GPRMC, Fri Sep 23 11:27:57 2022, 1663912677, 12.891960, 77.641396
AOATT, Fri Sep 23 11:27:57 2022, 1663912677, , , , , -0.77, -0.78, 36.35
AOGPS, Fri Sep 23 11:27:57 2022, 1663912677, 12.891957, 77.641396, 846.1, 10
GPGGA, Fri Sep 23 11:27:57 2022, 1663912677, 12.891960, 77.641396, 846.2, 10
AOATT, Fri Sep 23 11:27:57 2022, 1663912677, , , , , -0.77, -0.78, 36.35
AOGPS, Fri Sep 23 11:27:57 2022, 1663912677, 12.891957, 77.641396, 846.1, 10
GPGGA, Fri Sep 23 11:27:57 2022, 1663912677, 12.891960, 77.641396, 846.2, 10
AOGPS, Fri Sep 23 11:27:57 2022, 1663912677, 12.891957, 77.641396, 846.0, 10
GPGGA, Fri Sep 23 11:27:57 2022, 1663912677, 12.891960, 77.641396, 846.1, 10
AOGPS, Fri Sep 23 11:27:57 2022, 1663912677, 12.891957, 77.641396, 846.0, 10
GPGGA, Fri Sep 23 11:27:57 2022, 1663912677, 12.891959, 77.641396, 846.1, 10
GPRMC, Fri Sep 23 11:27:57 2022, 1663912677, 12.891959, 77.641396
AOGPS, Fri Sep 23 11:27:57 2022, 1663912677, 12.891957, 77.641397, 846.0, 10
GPGGA, Fri Sep 23 11:27:58 2022, 1663912678, 12.891960, 77.641396, 846.1, 10
GPRMC, Fri Sep 23 11:27:58 2022, 1663912678, 12.891960, 77.641396
AOGPS, Fri Sep 23 11:27:58 2022, 1663912678, 12.891957, 77.641397, 846.0, 10
GPGGA, Fri Sep 23 11:27:58 2022, 1663912678, 12.891960, 77.641396, 846.1, 10
AOATT, Fri Sep 23 11:27:58 2022, 1663912678, , , , , -0.76, -0.78, 36.38
AOGPS, Fri Sep 23 11:27:58 2022, 1663912678, 12.891957, 77.641397, 846.0, 10
GPGGA, Fri Sep 23 11:27:58 2022, 1663912678, 12.891960, 77.641396, 846.0, 10
AOATT, Fri Sep 23 11:27:58 2022, 1663912678, , , , , -0.77, -0.78, 36.38
AOGPS, Fri Sep 23 11:27:58 2022, 1663912678, 12.891957, 77.641397, 846.0, 10
GPGGA, Fri Sep 23 11:27:58 2022, 1663912678, 12.891960, 77.641396, 846.0, 10
AOATT, Fri Sep 23 11:27:58 2022, 1663912678, , , , , -0.77, -0.78, 36.39
AOGPS, Fri Sep 23 11:27:58 2022, 1663912678, 12.891957, 77.641397, 845.9, 10
GPGGA, Fri Sep 23 11:27:58 2022, 1663912678, 12.891960, 77.641396, 846.0, 10
GPRMC, Fri Sep 23 11:27:58 2022, 1663912678, 12.891960, 77.641396
AOATT, Fri Sep 23 11:27:58 2022, 1663912678, , , , , -0.77, -0.78, 36.39
AOGPS, Fri Sep 23 11:27:58 2022, 1663912678, 12.891956, 77.641396, 845.9, 10
GPGGA, Fri Sep 23 11:27:59 2022, 1663912679, 12.891960, 77.641396, 846.0, 10
GPRMC, Fri Sep 23 11:27:59 2022, 1663912679, 12.891960, 77.641396
AOATT, Fri Sep 23 11:27:59 2022, 1663912679, , , , , -0.77, -0.78, 36.39
AOGPS, Fri Sep 23 11:27:59 2022, 1663912679, 12.891956, 77.641396, 845.9, 10
GPGGA, Fri Sep 23 11:27:59 2022, 1663912679, 12.891960, 77.641396, 845.9, 10
GPRMC, Fri Sep 23 11:27:59 2022, 1663912679, 12.891960, 77.641396
AOGPS, Fri Sep 23 11:27:59 2022, 1663912679, 12.891955, 77.641396, 845.8, 10
GPGGA, Fri Sep 23 11:27:59 2022, 1663912679, 12.891960, 77.641396, 845.9, 10
AOGPS, Fri Sep 23 11:27:59 2022, 1663912679, 12.891955, 77.641396, 845.8, 10
GPGGA, Fri Sep 23 11:27:59 2022, 1663912679, 12.891960, 77.641396, 845.9, 10
GPRMC, Fri Sep 23 11:27:59 2022, 1663912679, 12.891960, 77.641396
AOGPS, Fri Sep 23 11:27:59 2022, 1663912679, 12.891955, 77.641396, 845.8, 10
GPGGA, Fri Sep 23 11:27:59 2022, 1663912679, 12.891959, 77.641396, 845.9, 10
GPRMC, Fri Sep 23 11:27:59 2022, 1663912679, 12.891959, 77.641396
AOGPS, Fri Sep 23 11:27:59 2022, 1663912679, 12.891954, 77.641396, 845.7, 10
GPGGA, Fri Sep 23 11:28:00 2022, 1663912680, 12.891959, 77.641396, 845.8, 10
GPRMC, Fri Sep 23 11:28:00 2022, 1663912680, 12.891959, 77.641396
AOATT, Fri Sep 23 11:28:00 2022, 1663912680, , , , , -0.77, -0.77, 36.42
AOGPS, Fri Sep 23 11:28:00 2022, 1663912680, 12.891954, 77.641396, 845.7, 10
GPGGA, Fri Sep 23 11:28:00 2022, 1663912680, 12.891959, 77.641396, 845.8, 10
GPRMC, Fri Sep 23 11:28:00 2022, 1663912680, 12.891959, 77.641396
AOATT, Fri Sep 23 11:28:00 2022, 1663912680, , , , , -0.77, -0.77, 36.42
AOGPS, Fri Sep 23 11:28:00 2022, 1663912680, 12.891954, 77.641396, 845.7, 10
GPGGA, Fri Sep 23 11:28:00 2022, 1663912680, 12.891959, 77.641396, 845.8, 10
GPRMC, Fri Sep 23 11:28:00 2022, 1663912680, 12.891959, 77.641396
AOATT, Fri Sep 23 11:28:00 2022, 1663912680, , , , , -0.77, -0.77, 36.43
AOGPS, Fri Sep 23 11:28:00 2022, 1663912680, 12.891953, 77.641396, 845.7, 10
GPGGA, Fri Sep 23 11:28:00 2022, 1663912680, 12.891959, 77.641396, 845.8, 10
AOATT, Fri Sep 23 11:28:00 2022, 1663912680, , , , , -0.77, -0.77, 36.43
AOGPS, Fri Sep 23 11:28:00 2022, 1663912680, 12.891953, 77.641396, 845.6, 10
GPGGA, Fri Sep 23 11:28:00 2022, 1663912680, 12.891959, 77.641396, 845.7, 10
GPRMC, Fri Sep 23 11:28:00 2022, 1663912680, 12.891959, 77.641396
AOATT, Fri Sep 23 11:28:00 2022, 1663912680, , , , , -0.77, -0.77, 36.44
AOGPS, Fri Sep 23 11:28:00 2022, 1663912680, 12.891953, 77.641396, 845.6, 10
GPGGA, Fri Sep 23 11:28:01 2022, 1663912681, 12.891958, 77.641396, 845.7, 10
AOATT, Fri Sep 23 11:28:01 2022, 1663912681, , , , , -0.77, -0.77, 36.44
AOGPS, Fri Sep 23 11:28:01 2022, 1663912681, 12.891953, 77.641396, 845.6, 10
GPGGA, Fri Sep 23 11:28:01 2022, 1663912681, 12.891958, 77.641396, 845.7, 10
AOATT, Fri Sep 23 11:28:01 2022, 1663912681, , , , , -0.77, -0.77, 36.45
AOGPS, Fri Sep 23 11:28:01 2022, 1663912681, 12.891952, 77.641396, 845.5, 10
GPGGA, Fri Sep 23 11:28:01 2022, 1663912681, 12.891958, 77.641396, 845.6, 10
GPRMC, Fri Sep 23 11:28:01 2022, 1663912681, 12.891958, 77.641396
AOATT, Fri Sep 23 11:28:01 2022, 1663912681, , , , , -0.77, -0.77, 36.45
AOGPS, Fri Sep 23 11:28:01 2022, 1663912681, 12.891952, 77.641396, 845.5, 10
GPGGA, Fri Sep 23 11:28:01 2022, 1663912681, 12.891958, 77.641396, 845.6, 10
GPRMC, Fri Sep 23 11:28:01 2022, 1663912681, 12.891958, 77.641396
AOATT, Fri Sep 23 11:28:01 2022, 1663912681, , , , , -0.77, -0.77, 36.46
AOGPS, Fri Sep 23 11:28:01 2022, 1663912681, 12.891952, 77.641396, 845.5, 10
GPGGA, Fri Sep 23 11:28:01 2022, 1663912681, 12.891958, 77.641396, 845.6, 10
GPRMC, Fri Sep 23 11:28:01 2022, 1663912681, 12.891958, 77.641396
AOATT, Fri Sep 23 11:28:01 2022, 1663912681, , , , , -0.77, -0.77, 36.46
AOGPS, Fri Sep 23 11:28:01 2022, 1663912681, 12.891951, 77.641396, 845.5, 10
GPGGA, Fri Sep 23 11:28:02 2022, 1663912682, 12.891958, 77.641396, 845.6, 10
GPRMC, Fri Sep 23 11:28:02 2022, 1663912682, 12.891958, 77.641396
AOATT, Fri Sep 23 11:28:02 2022, 1663912682, , , , , -0.77, -0.77, 36.47
AOGPS, Fri Sep 23 11:28:02 2022, 1663912682, 12.891951, 77.641396, 845.5, 10
GPGGA, Fri Sep 23 11:28:02 2022, 1663912682, 12.891958, 77.641396, 845.5, 10
GPRMC, Fri Sep 23 11:28:02 2022, 1663912682, 12.891958, 77.641396
AOATT, Fri Sep 23 11:28:02 2022, 1663912682, , , , , -0.77, -0.77, 36.47
AOGPS, Fri Sep 23 11:28:02 2022, 1663912682, 12.891951, 77.641396, 845.5, 10
GPGGA, Fri Sep 23 11:28:02 2022, 1663912682, 12.891957, 77.641396, 845.5, 10
GPRMC, Fri Sep 23 11:28:02 2022, 1663912682, 12.891957, 77.641396
AOGPS, Fri Sep 23 11:28:02 2022, 1663912682, 12.891950, 77.641396, 845.4, 10
GPGGA, Fri Sep 23 11:28:02 2022, 1663912682, 12.891957, 77.641396, 845.5, 10
GPRMC, Fri Sep 23 11:28:02 2022, 1663912682, 12.891957, 77.641396
AOATT, Fri Sep 23 11:28:02 2022, 1663912682, , , , , -0.77, -0.78, 36.48
AOGPS, Fri Sep 23 11:28:02 2022, 1663912682, 12.891950, 77.641396, 845.4, 10
GPGGA, Fri Sep 23 11:28:02 2022, 1663912682, 12.891957, 77.641396, 845.5, 10
GPRMC, Fri Sep 23 11:28:02 2022, 1663912682, 12.891957, 77.641396
AOATT, Fri Sep 23 11:28:02 2022, 1663912682, , , , , -0.77, -0.78, 36.48
AOGPS, Fri Sep 23 11:28:02 2022, 1663912682, 12.891950, 77.641396, 845.4, 10
GPGGA, Fri Sep 23 11:28:03 2022, 1663912683, 12.891957, 77.641396, 845.5, 10
GPRMC, Fri Sep 23 11:28:03 2022, 1663912683, 12.891957, 77.641396
AOATT, Fri Sep 23 11:28:03 2022, 1663912683, , , , , -0.77, -0.78, 36.49
AOGPS, Fri Sep 23 11:28:03 2022, 1663912683, 12.891949, 77.641396, 845.4, 10
GPGGA, Fri Sep 23 11:28:03 2022, 1663912683, 12.891956, 77.641396, 845.5, 10
GPRMC, Fri Sep 23 11:28:03 2022, 1663912683, 12.891956, 77.641396
AOATT, Fri Sep 23 11:28:03 2022, 1663912683, , , , , -0.77, -0.78, 36.49
AOGPS, Fri Sep 23 11:28:03 2022, 1663912683, 12.891949, 77.641396, 845.3, 10
GPGGA, Fri Sep 23 11:28:03 2022, 1663912683, 12.891956, 77.641396, 845.4, 10
GPRMC, Fri Sep 23 11:28:03 2022, 1663912683, 12.891956, 77.641396
AOGPS, Fri Sep 23 11:28:03 2022, 1663912683, 12.891949, 77.641396, 845.3, 10
GPGGA, Fri Sep 23 11:28:03 2022, 1663912683, 12.891956, 77.641396, 845.4, 10
AOGPS, Fri Sep 23 11:28:03 2022, 1663912683, 12.891948, 77.641396, 845.3, 10
GPGGA, Fri Sep 23 11:28:03 2022, 1663912683, 12.891956, 77.641396, 845.4, 10
GPRMC, Fri Sep 23 11:28:03 2022, 1663912683, 12.891956, 77.641396
AOGPS, Fri Sep 23 11:28:03 2022, 1663912683, 12.891948, 77.641396, 845.2, 10
GPGGA, Fri Sep 23 11:28:04 2022, 1663912684, 12.891955, 77.641396, 845.3, 10
GPRMC, Fri Sep 23 11:28:04 2022, 1663912684, 12.891955, 77.641396
AOGPS, Fri Sep 23 11:28:04 2022, 1663912684, 12.891948, 77.641396, 845.2, 10
GPGGA, Fri Sep 23 11:28:04 2022, 1663912684, 12.891955, 77.641396, 845.3, 10
GPRMC, Fri Sep 23 11:28:04 2022, 1663912684, 12.891955, 77.641396
AOGPS, Fri Sep 23 11:28:04 2022, 1663912684, 12.891947, 77.641396, 845.2, 10
GPGGA, Fri Sep 23 11:28:04 2022, 1663912684, 12.891955, 77.641396, 845.3, 10
AOATT, Fri Sep 23 11:28:04 2022, 1663912684, , , , , -0.76, -0.78, 36.52
AOGPS, Fri Sep 23 11:28:04 2022, 1663912684, 12.891947, 77.641396, 845.2, 10
GPGGA, Fri Sep 23 11:28:04 2022, 1663912684, 12.891955, 77.641396, 845.3, 10
AOATT, Fri Sep 23 11:28:04 2022, 1663912684, , , , , -0.76, -0.78, 36.52
AOGPS, Fri Sep 23 11:28:04 2022, 1663912684, 12.891946, 77.641396, 845.2, 10
GPGGA, Fri Sep 23 11:28:04 2022, 1663912684, 12.891954, 77.641396, 845.2, 10
GPRMC, Fri Sep 23 11:28:04 2022, 1663912684, 12.891954, 77.641396
AOATT, Fri Sep 23 11:28:04 2022, 1663912684, , , , , -0.76, -0.78, 36.53
AOGPS, Fri Sep 23 11:28:04 2022, 1663912684, 12.891946, 77.641396, 845.2, 10
GPGGA, Fri Sep 23 11:28:05 2022, 1663912685, 12.891954, 77.641396, 845.2, 10
GPRMC, Fri Sep 23 11:28:05 2022, 1663912685, 12.891954, 77.641396
AOATT, Fri Sep 23 11:28:05 2022, 1663912685, , , , , -0.76, -0.78, 36.53
AOGPS, Fri Sep 23 11:28:05 2022, 1663912685, 12.891946, 77.641395, 845.1, 10
GPGGA, Fri Sep 23 11:28:05 2022, 1663912685, 12.891954, 77.641396, 845.2, 10
GPRMC, Fri Sep 23 11:28:05 2022, 1663912685, 12.891954, 77.641396
AOGPS, Fri Sep 23 11:28:05 2022, 1663912685, 12.891945, 77.641395, 845.1, 10
GPGGA, Fri Sep 23 11:28:05 2022, 1663912685, 12.891954, 77.641396, 845.2, 9
AOGPS, Fri Sep 23 11:28:05 2022, 1663912685, 12.891944, 77.641395, 845.1, 9
GPGGA, Fri Sep 23 11:28:05 2022, 1663912685, 12.891954, 77.641396, 845.2, 8
GPRMC, Fri Sep 23 11:28:05 2022, 1663912685, 12.891954, 77.641396
AOGPS, Fri Sep 23 11:28:05 2022, 1663912685, 12.891944, 77.641395, 845.1, 8
GPGGA, Fri Sep 23 11:28:05 2022, 1663912685, 12.891954, 77.641396, 845.1, 9
GPRMC, Fri Sep 23 11:28:05 2022, 1663912685, 12.891954, 77.641396
AOGPS, Fri Sep 23 11:28:05 2022, 1663912685, 12.891943, 77.641395, 845.1, 9
GPGGA, Fri Sep 23 11:28:06 2022, 1663912686, 12.891954, 77.641396, 845.1, 9
GPRMC, Fri Sep 23 11:28:06 2022, 1663912686, 12.891954, 77.641396
AOGPS, Fri Sep 23 11:28:06 2022, 1663912686, 12.891942, 77.641395, 845.0, 9
GPGGA, Fri Sep 23 11:28:06 2022, 1663912686, 12.891953, 77.641396, 845.1, 9
AOGPS, Fri Sep 23 11:28:06 2022, 1663912686, 12.891941, 77.641395, 844.9, 9
GPGGA, Fri Sep 23 11:28:06 2022, 1663912686, 12.891953, 77.641396, 845.1, 9
GPRMC, Fri Sep 23 11:28:06 2022, 1663912686, 12.891953, 77.641396
AOGPS, Fri Sep 23 11:28:06 2022, 1663912686, 12.891939, 77.641394, 844.8, 9
GPGGA, Fri Sep 23 11:28:06 2022, 1663912686, 12.891952, 77.641396, 845.0, 10
GPRMC, Fri Sep 23 11:28:06 2022, 1663912686, 12.891952, 77.641396
AOGPS, Fri Sep 23 11:28:06 2022, 1663912686, 12.891938, 77.641394, 844.8, 10
AOATT, Fri Sep 23 11:28:06 2022, 1663912686, , , , , -0.76, -0.78, 36.58
AOGPS, Fri Sep 23 11:28:06 2022, 1663912686, 12.891936, 77.641394, 844.7, 10
GPGGA, Fri Sep 23 11:28:07 2022, 1663912687, 12.891947, 77.641395, 844.9, 9
GPRMC, Fri Sep 23 11:28:07 2022, 1663912687, 12.891947, 77.641395
AOATT, Fri Sep 23 11:28:07 2022, 1663912687, , , , , -0.76, -0.78, 36.58
AOGPS, Fri Sep 23 11:28:07 2022, 1663912687, 12.891935, 77.641394, 844.6, 9
GPGGA, Fri Sep 23 11:28:07 2022, 1663912687, 12.891946, 77.641395, 844.9, 10
GPRMC, Fri Sep 23 11:28:07 2022, 1663912687, 12.891946, 77.641395
AOATT, Fri Sep 23 11:28:07 2022, 1663912687, , , , , -0.76, -0.78, 36.58
AOGPS, Fri Sep 23 11:28:07 2022, 1663912687, 12.891935, 77.641393, 844.6, 10
GPGGA, Fri Sep 23 11:28:07 2022, 1663912687, 12.891944, 77.641395, 844.8, 9
GPRMC, Fri Sep 23 11:28:07 2022, 1663912687, 12.891944, 77.641395
AOATT, Fri Sep 23 11:28:07 2022, 1663912687, , , , , -0.76, -0.78, 36.59
AOGPS, Fri Sep 23 11:28:07 2022, 1663912687, 12.891934, 77.641393, 844.5, 9
GPGGA, Fri Sep 23 11:28:07 2022, 1663912687, 12.891943, 77.641394, 844.8, 10
GPRMC, Fri Sep 23 11:28:07 2022, 1663912687, 12.891943, 77.641394
AOATT, Fri Sep 23 11:28:07 2022, 1663912687, , , , , -0.76, -0.78, 36.59
AOGPS, Fri Sep 23 11:28:07 2022, 1663912687, 12.891933, 77.641393, 844.5, 10
GPGGA, Fri Sep 23 11:28:07 2022, 1663912687, 12.891942, 77.641394, 844.7, 10
AOATT, Fri Sep 23 11:28:07 2022, 1663912687, , , , , -0.76, -0.78, 36.60
AOGPS, Fri Sep 23 11:28:07 2022, 1663912687, 12.891932, 77.641393, 844.4, 10
GPGGA, Fri Sep 23 11:28:08 2022, 1663912688, 12.891940, 77.641394, 844.6, 10
AOATT, Fri Sep 23 11:28:08 2022, 1663912688, , , , , -0.76, -0.78, 36.60
AOGPS, Fri Sep 23 11:28:08 2022, 1663912688, 12.891931, 77.641393, 844.4, 10
GPGGA, Fri Sep 23 11:28:08 2022, 1663912688, 12.891939, 77.641394, 844.6, 10
GPRMC, Fri Sep 23 11:28:08 2022, 1663912688, 12.891939, 77.641394
AOATT, Fri Sep 23 11:28:08 2022, 1663912688, , , , , -0.76, -0.78, 36.61
AOGPS, Fri Sep 23 11:28:08 2022, 1663912688, 12.891930, 77.641392, 844.4, 10
GPGGA, Fri Sep 23 11:28:08 2022, 1663912688, 12.891938, 77.641394, 844.5, 10
GPRMC, Fri Sep 23 11:28:08 2022, 1663912688, 12.891938, 77.641394
AOATT, Fri Sep 23 11:28:08 2022, 1663912688, , , , , -0.76, -0.78, 36.61
AOGPS, Fri Sep 23 11:28:08 2022, 1663912688, 12.891929, 77.641392, 844.3, 10
GPGGA, Fri Sep 23 11:28:08 2022, 1663912688, 12.891937, 77.641393, 844.5, 10
GPRMC, Fri Sep 23 11:28:08 2022, 1663912688, 12.891937, 77.641393
AOGPS, Fri Sep 23 11:28:08 2022, 1663912688, 12.891928, 77.641392, 844.3, 10
GPGGA, Fri Sep 23 11:28:08 2022, 1663912688, 12.891936, 77.641393, 844.5, 10
GPRMC, Fri Sep 23 11:28:08 2022, 1663912688, 12.891936, 77.641393
AOGPS, Fri Sep 23 11:28:08 2022, 1663912688, 12.891927, 77.641392, 844.2, 10
GPGGA, Fri Sep 23 11:28:09 2022, 1663912689, 12.891935, 77.641393, 844.4, 10
GPRMC, Fri Sep 23 11:28:09 2022, 1663912689, 12.891935, 77.641393
AOGPS, Fri Sep 23 11:28:09 2022, 1663912689, 12.891927, 77.641392, 844.2, 10
GPGGA, Fri Sep 23 11:28:09 2022, 1663912689, 12.891934, 77.641393, 844.4, 10
GPRMC, Fri Sep 23 11:28:09 2022, 1663912689, 12.891934, 77.641393
AOGPS, Fri Sep 23 11:28:09 2022, 1663912689, 12.891926, 77.641392, 844.1, 10
GPGGA, Fri Sep 23 11:28:09 2022, 1663912689, 12.891933, 77.641393, 844.3, 10
GPRMC, Fri Sep 23 11:28:09 2022, 1663912689, 12.891933, 77.641393
AOGPS, Fri Sep 23 11:28:09 2022, 1663912689, 12.891925, 77.641392, 844.1, 10
GPGGA, Fri Sep 23 11:28:09 2022, 1663912689, 12.891932, 77.641393, 844.3, 10
AOGPS, Fri Sep 23 11:28:09 2022, 1663912689, 12.891925, 77.641392, 844.0, 10
GPGGA, Fri Sep 23 11:28:09 2022, 1663912689, 12.891931, 77.641393, 844.2, 10
GPRMC, Fri Sep 23 11:28:09 2022, 1663912689, 12.891931, 77.641393
AOGPS, Fri Sep 23 11:28:09 2022, 1663912689, 12.891924, 77.641391, 843.9, 10
GPGGA, Fri Sep 23 11:28:10 2022, 1663912690, 12.891931, 77.641392, 844.2, 10
GPRMC, Fri Sep 23 11:28:10 2022, 1663912690, 12.891931, 77.641392
AOGPS, Fri Sep 23 11:28:10 2022, 1663912690, 12.891923, 77.641391, 843.9, 10
GPGGA, Fri Sep 23 11:28:10 2022, 1663912690, 12.891930, 77.641392, 844.1, 10
AOGPS, Fri Sep 23 11:28:10 2022, 1663912690, 12.891922, 77.641391, 843.9, 10
GPGGA, Fri Sep 23 11:28:10 2022, 1663912690, 12.891929, 77.641392, 844.1, 10
GPRMC, Fri Sep 23 11:28:10 2022, 1663912690, 12.891929, 77.641392
AOGPS, Fri Sep 23 11:28:10 2022, 1663912690, 12.891922, 77.641391, 843.8, 10
GPGGA, Fri Sep 23 11:28:10 2022, 1663912690, 12.891928, 77.641392, 844.0, 10
GPRMC, Fri Sep 23 11:28:10 2022, 1663912690, 12.891928, 77.641392
AOATT, Fri Sep 23 11:28:10 2022, 1663912690, , , , , 3.34, -0.90, 35.85
AOGPS, Fri Sep 23 11:28:10 2022, 1663912690, 12.891920, 77.641391, 843.7, 10
GPGGA, Fri Sep 23 11:28:10 2022, 1663912690, 12.891928, 77.641392, 844.0, 10
GPRMC, Fri Sep 23 11:28:10 2022, 1663912690, 12.891928, 77.641392
AOATT, Fri Sep 23 11:28:10 2022, 1663912690, , , , , 39.45, -8.87, 42.42
AOGPS, Fri Sep 23 11:28:10 2022, 1663912690, 12.891920, 77.641391, 843.7, 10
GPGGA, Fri Sep 23 11:28:11 2022, 1663912691, 12.891927, 77.641392, 843.9, 10
GPRMC, Fri Sep 23 11:28:11 2022, 1663912691, 12.891927, 77.641392
AOATT, Fri Sep 23 11:28:11 2022, 1663912691, , , , , 45.74, -11.39, 39.95
AOGPS, Fri Sep 23 11:28:11 2022, 1663912691, 12.891919, 77.641390, 843.5, 10
GPGGA, Fri Sep 23 11:28:11 2022, 1663912691, 12.891926, 77.641392, 843.8, 10
AOATT, Fri Sep 23 11:28:11 2022, 1663912691, , , , , 25.45, -15.89, 37.64
AOGPS, Fri Sep 23 11:28:11 2022, 1663912691, 12.891918, 77.641390, 843.5, 10
GPGGA, Fri Sep 23 11:28:11 2022, 1663912691, 12.891926, 77.641391, 843.8, 10
GPRMC, Fri Sep 23 11:28:11 2022, 1663912691, 12.891926, 77.641391
AOATT, Fri Sep 23 11:28:11 2022, 1663912691, , , , , 10.19, -20.09, 36.99
AOGPS, Fri Sep 23 11:28:11 2022, 1663912691, 12.891918, 77.641390, 843.5, 10
GPGGA, Fri Sep 23 11:28:11 2022, 1663912691, 12.891925, 77.641391, 843.7, 10
GPRMC, Fri Sep 23 11:28:11 2022, 1663912691, 12.891925, 77.641391
AOATT, Fri Sep 23 11:28:11 2022, 1663912691, , , , , 4.53, -15.64, 38.06
AOGPS, Fri Sep 23 11:28:11 2022, 1663912691, 12.891917, 77.641390, 843.4, 10
GPGGA, Fri Sep 23 11:28:11 2022, 1663912691, 12.891924, 77.641391, 843.6, 10
GPRMC, Fri Sep 23 11:28:11 2022, 1663912691, 12.891924, 77.641391
AOATT, Fri Sep 23 11:28:11 2022, 1663912691, , , , , 2.38, -9.32, 38.93
AOGPS, Fri Sep 23 11:28:11 2022, 1663912691, 12.891916, 77.641390, 843.4, 10
GPGGA, Fri Sep 23 11:28:12 2022, 1663912692, 12.891923, 77.641391, 843.6, 10
GPRMC, Fri Sep 23 11:28:12 2022, 1663912692, 12.891923, 77.641391
AOATT, Fri Sep 23 11:28:12 2022, 1663912692, , , , , -1.26, -0.90, 37.59
AOGPS, Fri Sep 23 11:28:12 2022, 1663912692, 12.891915, 77.641390, 843.3, 10
GPGGA, Fri Sep 23 11:28:12 2022, 1663912692, 12.891922, 77.641391, 843.5, 10
GPRMC, Fri Sep 23 11:28:12 2022, 1663912692, 12.891922, 77.641391
AOGPS, Fri Sep 23 11:28:12 2022, 1663912692, 12.891914, 77.641389, 843.2, 10
GPGGA, Fri Sep 23 11:28:12 2022, 1663912692, 12.891921, 77.641391, 843.5, 10
GPRMC, Fri Sep 23 11:28:12 2022, 1663912692, 12.891921, 77.641391
AOGPS, Fri Sep 23 11:28:12 2022, 1663912692, 12.891913, 77.641389, 843.2, 10
GPGGA, Fri Sep 23 11:28:12 2022, 1663912692, 12.891920, 77.641390, 843.4, 10
GPRMC, Fri Sep 23 11:28:12 2022, 1663912692, 12.891920, 77.641390
AOGPS, Fri Sep 23 11:28:12 2022, 1663912692, 12.891913, 77.641389, 843.2, 10
GPGGA, Fri Sep 23 11:28:12 2022, 1663912692, 12.891920, 77.641390, 843.4, 10
GPRMC, Fri Sep 23 11:28:12 2022, 1663912692, 12.891920, 77.641390
AOATT, Fri Sep 23 11:28:12 2022, 1663912692, , , , , -1.23, -0.92, 37.76
AOGPS, Fri Sep 23 11:28:12 2022, 1663912692, 12.891912, 77.641389, 843.1, 10
GPGGA, Fri Sep 23 11:28:13 2022, 1663912693, 12.891919, 77.641390, 843.3, 10
AOATT, Fri Sep 23 11:28:13 2022, 1663912693, , , , , -1.21, -0.91, 37.76
AOGPS, Fri Sep 23 11:28:13 2022, 1663912693, 12.891911, 77.641389, 843.1, 10
GPGGA, Fri Sep 23 11:28:13 2022, 1663912693, 12.891918, 77.641390, 843.3, 10
GPRMC, Fri Sep 23 11:28:13 2022, 1663912693, 12.891918, 77.641390
AOGPS, Fri Sep 23 11:28:13 2022, 1663912693, 12.891911, 77.641389, 843.0, 10
GPGGA, Fri Sep 23 11:28:13 2022, 1663912693, 12.891917, 77.641390, 843.2, 10
AOATT, Fri Sep 23 11:28:13 2022, 1663912693, , , , , -1.17, -0.88, 37.77
AOGPS, Fri Sep 23 11:28:13 2022, 1663912693, 12.891910, 77.641388, 843.0, 10
GPGGA, Fri Sep 23 11:28:13 2022, 1663912693, 12.891916, 77.641389, 843.2, 10
GPRMC, Fri Sep 23 11:28:13 2022, 1663912693, 12.891916, 77.641389
AOATT, Fri Sep 23 11:28:13 2022, 1663912693, , , , , -1.15, -0.87, 37.77
AOGPS, Fri Sep 23 11:28:13 2022, 1663912693, 12.891909, 77.641388, 843.0, 10
GPGGA, Fri Sep 23 11:28:13 2022, 1663912693, 12.891915, 77.641389, 843.2, 10
GPRMC, Fri Sep 23 11:28:13 2022, 1663912693, 12.891915, 77.641389
AOATT, Fri Sep 23 11:28:13 2022, 1663912693, , , , , -1.12, -0.86, 37.78
AOGPS, Fri Sep 23 11:28:13 2022, 1663912693, 12.891909, 77.641388, 843.0, 10
GPGGA, Fri Sep 23 11:28:14 2022, 1663912694, 12.891915, 77.641389, 843.1, 10
GPRMC, Fri Sep 23 11:28:14 2022, 1663912694, 12.891915, 77.641389
AOATT, Fri Sep 23 11:28:14 2022, 1663912694, , , , , -1.09, -0.85, 37.78
AOGPS, Fri Sep 23 11:28:14 2022, 1663912694, 12.891908, 77.641388, 843.0, 10
GPGGA, Fri Sep 23 11:28:14 2022, 1663912694, 12.891914, 77.641389, 843.1, 10
GPRMC, Fri Sep 23 11:28:14 2022, 1663912694, 12.891914, 77.641389
AOATT, Fri Sep 23 11:28:14 2022, 1663912694, , , , , -1.06, -0.84, 37.78
AOGPS, Fri Sep 23 11:28:14 2022, 1663912694, 12.891908, 77.641388, 843.0, 10
GPGGA, Fri Sep 23 11:28:14 2022, 1663912694, 12.891913, 77.641389, 843.1, 10
GPRMC, Fri Sep 23 11:28:14 2022, 1663912694, 12.891913, 77.641389
AOATT, Fri Sep 23 11:28:14 2022, 1663912694, , , , , -1.04, -0.84, 37.79
AOGPS, Fri Sep 23 11:28:14 2022, 1663912694, 12.891907, 77.641388, 843.0, 10
