Type, Time, Epoch time,  Latitude, Longitude, Altitude, Satellites, Roll, Pitch, Heading
GPGGA, Thu Sep 15 10:49:47 2022, 1663219187, 12.891830, 77.641368, 831.0, 14
AOGPS, Thu Sep 15 10:49:47 2022, 1663219187, 12.891830, 77.641368, 831.2, 14
GPGGA, Thu Sep 15 10:49:47 2022, 1663219187, 12.891830, 77.641368, 831.1, 15
AOGPS, Thu Sep 15 10:49:47 2022, 1663219187, 12.891830, 77.641368, 831.3, 15
GPGGA, Thu Sep 15 10:49:47 2022, 1663219187, 12.891830, 77.641368, 831.1, 15
AOATT, Thu Sep 15 10:49:47 2022, 1663219187, , , , , -0.70, -0.60, 41.64
AOGPS, Thu Sep 15 10:49:47 2022, 1663219187, 12.891830, 77.641368, 831.3, 15
GPGGA, Thu Sep 15 10:49:47 2022, 1663219187, 12.891830, 77.641368, 831.1, 15
GPRMC, Thu Sep 15 10:49:47 2022, 1663219187, 12.891830, 77.641368
AOATT, Thu Sep 15 10:49:47 2022, 1663219187, , , , , -0.71, -0.60, 41.64
AOGPS, Thu Sep 15 10:49:47 2022, 1663219187, 12.891830, 77.641368, 831.3, 15
GPGGA, Thu Sep 15 10:49:48 2022, 1663219188, 12.891830, 77.641368, 831.2, 15
GPRMC, Thu Sep 15 10:49:48 2022, 1663219188, 12.891830, 77.641368
AOATT, Thu Sep 15 10:49:48 2022, 1663219188, , , , , -0.70, -0.61, 41.63
AOGPS, Thu Sep 15 10:49:48 2022, 1663219188, 12.891830, 77.641368, 831.3, 15
GPGGA, Thu Sep 15 10:49:48 2022, 1663219188, 12.891830, 77.641368, 831.2, 14
AOATT, Thu Sep 15 10:49:48 2022, 1663219188, , , , , -0.70, -0.60, 41.64
AOGPS, Thu Sep 15 10:49:48 2022, 1663219188, 12.891830, 77.641368, 831.4, 14
GPGGA, Thu Sep 15 10:49:48 2022, 1663219188, 12.891830, 77.641368, 831.2, 15
AOATT, Thu Sep 15 10:49:48 2022, 1663219188, , , , , -0.70, -0.61, 41.63
AOGPS, Thu Sep 15 10:49:48 2022, 1663219188, 12.891830, 77.641368, 831.4, 15
GPGGA, Thu Sep 15 10:49:48 2022, 1663219188, 12.891830, 77.641368, 831.3, 15
GPRMC, Thu Sep 15 10:49:48 2022, 1663219188, 12.891830, 77.641368
AOATT, Thu Sep 15 10:49:48 2022, 1663219188, , , , , -0.70, -0.61, 41.63
AOGPS, Thu Sep 15 10:49:48 2022, 1663219188, 12.891830, 77.641368, 831.4, 15
GPGGA, Thu Sep 15 10:49:48 2022, 1663219188, 12.891830, 77.641368, 831.3, 15
GPRMC, Thu Sep 15 10:49:48 2022, 1663219188, 12.891830, 77.641368
AOATT, Thu Sep 15 10:49:48 2022, 1663219188, , , , , -0.70, -0.60, 41.64
AOGPS, Thu Sep 15 10:49:48 2022, 1663219188, 12.891830, 77.641368, 831.4, 15
GPGGA, Thu Sep 15 10:49:49 2022, 1663219189, 12.891830, 77.641368, 831.3, 15
GPRMC, Thu Sep 15 10:49:49 2022, 1663219189, 12.891830, 77.641368
AOATT, Thu Sep 15 10:49:49 2022, 1663219189, , , , , -0.70, -0.61, 41.64
AOGPS, Thu Sep 15 10:49:49 2022, 1663219189, 12.891830, 77.641368, 831.4, 15
GPGGA, Thu Sep 15 10:49:49 2022, 1663219189, 12.891830, 77.641368, 831.3, 15
GPRMC, Thu Sep 15 10:49:49 2022, 1663219189, 12.891830, 77.641368
AOATT, Thu Sep 15 10:49:49 2022, 1663219189, , , , , -0.71, -0.60, 41.63
AOGPS, Thu Sep 15 10:49:49 2022, 1663219189, 12.891830, 77.641368, 831.5, 15
GPGGA, Thu Sep 15 10:49:49 2022, 1663219189, 12.891830, 77.641368, 831.4, 15
GPRMC, Thu Sep 15 10:49:49 2022, 1663219189, 12.891830, 77.641368
AOATT, Thu Sep 15 10:49:49 2022, 1663219189, , , , , -0.71, -0.60, 41.64
AOGPS, Thu Sep 15 10:49:49 2022, 1663219189, 12.891830, 77.641368, 831.5, 15
GPGGA, Thu Sep 15 10:49:49 2022, 1663219189, 12.891830, 77.641368, 831.4, 15
AOATT, Thu Sep 15 10:49:49 2022, 1663219189, , , , , -0.71, -0.60, 41.64
AOGPS, Thu Sep 15 10:49:49 2022, 1663219189, 12.891830, 77.641368, 831.5, 15
GPGGA, Thu Sep 15 10:49:49 2022, 1663219189, 12.891830, 77.641368, 831.4, 15
GPRMC, Thu Sep 15 10:49:49 2022, 1663219189, 12.891830, 77.641368
AOGPS, Thu Sep 15 10:49:49 2022, 1663219189, 12.891830, 77.641368, 831.5, 15
GPGGA, Thu Sep 15 10:49:50 2022, 1663219190, 12.891830, 77.641368, 831.4, 15
GPRMC, Thu Sep 15 10:49:50 2022, 1663219190, 12.891830, 77.641368
AOATT, Thu Sep 15 10:49:50 2022, 1663219190, , , , , -0.71, -0.60, 41.63
AOGPS, Thu Sep 15 10:49:50 2022, 1663219190, 12.891830, 77.641368, 831.5, 15
GPGGA, Thu Sep 15 10:49:50 2022, 1663219190, 12.891830, 77.641368, 831.5, 15
GPRMC, Thu Sep 15 10:49:50 2022, 1663219190, 12.891830, 77.641368
AOATT, Thu Sep 15 10:49:50 2022, 1663219190, , , , , -0.70, -0.60, 41.63
AOGPS, Thu Sep 15 10:49:50 2022, 1663219190, 12.891830, 77.641368, 831.5, 15
GPGGA, Thu Sep 15 10:49:50 2022, 1663219190, 12.891830, 77.641368, 831.5, 15
GPRMC, Thu Sep 15 10:49:50 2022, 1663219190, 12.891830, 77.641368
AOATT, Thu Sep 15 10:49:50 2022, 1663219190, , , , , -0.70, -0.60, 41.63
AOGPS, Thu Sep 15 10:49:50 2022, 1663219190, 12.891830, 77.641368, 831.6, 15
GPGGA, Thu Sep 15 10:49:50 2022, 1663219190, 12.891830, 77.641368, 831.5, 15
AOATT, Thu Sep 15 10:49:50 2022, 1663219190, , , , , -0.71, -0.60, 41.63
AOGPS, Thu Sep 15 10:49:50 2022, 1663219190, 12.891830, 77.641368, 831.6, 15
GPGGA, Thu Sep 15 10:49:50 2022, 1663219190, 12.891830, 77.641368, 831.5, 15
GPRMC, Thu Sep 15 10:49:50 2022, 1663219190, 12.891830, 77.641368
AOATT, Thu Sep 15 10:49:50 2022, 1663219190, , , , , -0.70, -0.61, 41.63
AOGPS, Thu Sep 15 10:49:50 2022, 1663219190, 12.891830, 77.641368, 831.6, 15
GPGGA, Thu Sep 15 10:49:51 2022, 1663219191, 12.891830, 77.641368, 831.5, 15
GPRMC, Thu Sep 15 10:49:51 2022, 1663219191, 12.891830, 77.641368
AOATT, Thu Sep 15 10:49:51 2022, 1663219191, , , , , -0.71, -0.60, 41.63
AOGPS, Thu Sep 15 10:49:51 2022, 1663219191, 12.891830, 77.641368, 831.6, 15
GPGGA, Thu Sep 15 10:49:51 2022, 1663219191, 12.891830, 77.641368, 831.5, 14
AOATT, Thu Sep 15 10:49:51 2022, 1663219191, , , , , -0.71, -0.60, 41.63
AOGPS, Thu Sep 15 10:49:51 2022, 1663219191, 12.891830, 77.641368, 831.6, 14
GPGGA, Thu Sep 15 10:49:51 2022, 1663219191, 12.891830, 77.641368, 831.5, 14
AOGPS, Thu Sep 15 10:49:51 2022, 1663219191, 12.891830, 77.641368, 831.6, 14
GPGGA, Thu Sep 15 10:49:51 2022, 1663219191, 12.891830, 77.641368, 831.6, 15
GPRMC, Thu Sep 15 10:49:51 2022, 1663219191, 12.891830, 77.641368
AOATT, Thu Sep 15 10:49:51 2022, 1663219191, , , , , -0.70, -0.61, 41.63
AOGPS, Thu Sep 15 10:49:51 2022, 1663219191, 12.891830, 77.641368, 831.6, 15
GPGGA, Thu Sep 15 10:49:51 2022, 1663219191, 12.891830, 77.641368, 831.6, 15
AOGPS, Thu Sep 15 10:49:51 2022, 1663219191, 12.891830, 77.641368, 831.6, 15
GPGGA, Thu Sep 15 10:49:52 2022, 1663219192, 12.891830, 77.641368, 831.6, 15
GPRMC, Thu Sep 15 10:49:52 2022, 1663219192, 12.891830, 77.641368
AOATT, Thu Sep 15 10:49:52 2022, 1663219192, , , , , -0.70, -0.60, 41.63
AOGPS, Thu Sep 15 10:49:52 2022, 1663219192, 12.891830, 77.641368, 831.6, 15
GPGGA, Thu Sep 15 10:49:52 2022, 1663219192, 12.891830, 77.641368, 831.6, 15
GPRMC, Thu Sep 15 10:49:52 2022, 1663219192, 12.891830, 77.641368
AOATT, Thu Sep 15 10:49:52 2022, 1663219192, , , , , -0.71, -0.62, 41.61
AOGPS, Thu Sep 15 10:49:52 2022, 1663219192, 12.891830, 77.641368, 831.6, 15
GPGGA, Thu Sep 15 10:49:52 2022, 1663219192, 12.891830, 77.641368, 831.6, 15
AOATT, Thu Sep 15 10:49:52 2022, 1663219192, , , , , -0.73, -0.60, 41.62
AOGPS, Thu Sep 15 10:49:52 2022, 1663219192, 12.891830, 77.641368, 831.6, 15
GPGGA, Thu Sep 15 10:49:52 2022, 1663219192, 12.891830, 77.641368, 831.6, 15
AOATT, Thu Sep 15 10:49:52 2022, 1663219192, , , , , -0.72, -0.61, 41.62
AOGPS, Thu Sep 15 10:49:52 2022, 1663219192, 12.891830, 77.641368, 831.6, 15
GPGGA, Thu Sep 15 10:49:52 2022, 1663219192, 12.891830, 77.641368, 831.6, 15
GPRMC, Thu Sep 15 10:49:52 2022, 1663219192, 12.891830, 77.641368
AOATT, Thu Sep 15 10:49:52 2022, 1663219192, , , , , -0.73, -0.61, 41.62
AOGPS, Thu Sep 15 10:49:52 2022, 1663219192, 12.891830, 77.641368, 831.7, 15
GPGGA, Thu Sep 15 10:49:53 2022, 1663219193, 12.891830, 77.641368, 831.6, 15
AOATT, Thu Sep 15 10:49:53 2022, 1663219193, , , , , -0.73, -0.60, 41.62
AOGPS, Thu Sep 15 10:49:53 2022, 1663219193, 12.891830, 77.641368, 831.7, 15
GPGGA, Thu Sep 15 10:49:53 2022, 1663219193, 12.891830, 77.641368, 831.6, 15
GPRMC, Thu Sep 15 10:49:53 2022, 1663219193, 12.891830, 77.641368
AOATT, Thu Sep 15 10:49:53 2022, 1663219193, , , , , -0.74, -0.60, 41.62
AOGPS, Thu Sep 15 10:49:53 2022, 1663219193, 12.891830, 77.641368, 831.7, 15
GPGGA, Thu Sep 15 10:49:53 2022, 1663219193, 12.891830, 77.641368, 831.6, 15
GPRMC, Thu Sep 15 10:49:53 2022, 1663219193, 12.891830, 77.641368
AOATT, Thu Sep 15 10:49:53 2022, 1663219193, , , , , -0.72, -0.61, 41.62
AOGPS, Thu Sep 15 10:49:53 2022, 1663219193, 12.891830, 77.641368, 831.7, 15
GPGGA, Thu Sep 15 10:49:53 2022, 1663219193, 12.891830, 77.641368, 831.6, 15
AOATT, Thu Sep 15 10:49:53 2022, 1663219193, , , , , 2.33, -1.08, 41.27
AOGPS, Thu Sep 15 10:49:53 2022, 1663219193, 12.891829, 77.641368, 831.7, 15
GPGGA, Thu Sep 15 10:49:53 2022, 1663219193, 12.891830, 77.641368, 831.7, 15
AOATT, Thu Sep 15 10:49:53 2022, 1663219193, , , , , 15.02, -11.21, 39.97
AOGPS, Thu Sep 15 10:49:53 2022, 1663219193, 12.891829, 77.641368, 831.7, 15
GPGGA, Thu Sep 15 10:49:54 2022, 1663219194, 12.891830, 77.641368, 831.7, 15
GPRMC, Thu Sep 15 10:49:54 2022, 1663219194, 12.891830, 77.641368
AOATT, Thu Sep 15 10:49:54 2022, 1663219194, , , , , 21.95, -38.49, 22.64
AOGPS, Thu Sep 15 10:49:54 2022, 1663219194, 12.891829, 77.641368, 831.7, 15
GPGGA, Thu Sep 15 10:49:54 2022, 1663219194, 12.891829, 77.641368, 831.7, 15
GPRMC, Thu Sep 15 10:49:54 2022, 1663219194, 12.891829, 77.641368
AOGPS, Thu Sep 15 10:49:54 2022, 1663219194, 12.891829, 77.641368, 831.7, 15
GPGGA, Thu Sep 15 10:49:54 2022, 1663219194, 12.891829, 77.641368, 831.7, 15
AOATT, Thu Sep 15 10:49:54 2022, 1663219194, , , , , 20.01, -42.05, 13.11
AOGPS, Thu Sep 15 10:49:54 2022, 1663219194, 12.891829, 77.641368, 831.7, 15
GPGGA, Thu Sep 15 10:49:54 2022, 1663219194, 12.891829, 77.641368, 831.7, 15
AOGPS, Thu Sep 15 10:49:54 2022, 1663219194, 12.891829, 77.641368, 831.7, 15
GPGGA, Thu Sep 15 10:49:54 2022, 1663219194, 12.891829, 77.641368, 831.7, 15
GPRMC, Thu Sep 15 10:49:54 2022, 1663219194, 12.891829, 77.641368
AOATT, Thu Sep 15 10:49:54 2022, 1663219194, , , , , 27.26, -41.88, 2.22
AOGPS, Thu Sep 15 10:49:54 2022, 1663219194, 12.891829, 77.641368, 831.8, 15
GPGGA, Thu Sep 15 10:49:55 2022, 1663219195, 12.891829, 77.641368, 831.7, 15
GPRMC, Thu Sep 15 10:49:55 2022, 1663219195, 12.891829, 77.641368
AOATT, Thu Sep 15 10:49:55 2022, 1663219195, , , , , 15.50, -39.38, 10.13
AOGPS, Thu Sep 15 10:49:55 2022, 1663219195, 12.891829, 77.641368, 831.8, 15
GPGGA, Thu Sep 15 10:49:55 2022, 1663219195, 12.891829, 77.641368, 831.7, 15
GPRMC, Thu Sep 15 10:49:55 2022, 1663219195, 12.891829, 77.641368
AOATT, Thu Sep 15 10:49:55 2022, 1663219195, , , , , 4.72, -33.15, 23.53
AOGPS, Thu Sep 15 10:49:55 2022, 1663219195, 12.891829, 77.641367, 831.7, 15
GPGGA, Thu Sep 15 10:49:55 2022, 1663219195, 12.891829, 77.641368, 831.8, 15
GPRMC, Thu Sep 15 10:49:55 2022, 1663219195, 12.891829, 77.641368
AOGPS, Thu Sep 15 10:49:55 2022, 1663219195, 12.891828, 77.641367, 831.8, 15
GPGGA, Thu Sep 15 10:49:55 2022, 1663219195, 12.891829, 77.641367, 831.8, 15
AOATT, Thu Sep 15 10:49:55 2022, 1663219195, , , , , 2.27, -13.41, 31.96
AOGPS, Thu Sep 15 10:49:55 2022, 1663219195, 12.891828, 77.641367, 831.8, 15
GPGGA, Thu Sep 15 10:49:55 2022, 1663219195, 12.891829, 77.641367, 831.8, 15
AOGPS, Thu Sep 15 10:49:55 2022, 1663219195, 12.891828, 77.641367, 831.8, 15
GPGGA, Thu Sep 15 10:49:56 2022, 1663219196, 12.891828, 77.641367, 831.8, 15
AOATT, Thu Sep 15 10:49:56 2022, 1663219196, , , , , -25.21, -8.87, 15.99
AOGPS, Thu Sep 15 10:49:56 2022, 1663219196, 12.891828, 77.641367, 831.7, 15
GPGGA, Thu Sep 15 10:49:56 2022, 1663219196, 12.891828, 77.641367, 831.8, 15
GPRMC, Thu Sep 15 10:49:56 2022, 1663219196, 12.891828, 77.641367
AOATT, Thu Sep 15 10:49:56 2022, 1663219196, , , , , -21.22, -1.07, 12.55
AOGPS, Thu Sep 15 10:49:56 2022, 1663219196, 12.891828, 77.641367, 831.8, 15
GPGGA, Thu Sep 15 10:49:56 2022, 1663219196, 12.891828, 77.641367, 831.8, 15
GPRMC, Thu Sep 15 10:49:56 2022, 1663219196, 12.891828, 77.641367
AOATT, Thu Sep 15 10:49:56 2022, 1663219196, , , , , -29.80, 3.74, 8.70
AOGPS, Thu Sep 15 10:49:56 2022, 1663219196, 12.891828, 77.641367, 831.8, 15
GPGGA, Thu Sep 15 10:49:56 2022, 1663219196, 12.891828, 77.641367, 831.8, 15
GPRMC, Thu Sep 15 10:49:56 2022, 1663219196, 12.891828, 77.641367
AOATT, Thu Sep 15 10:49:56 2022, 1663219196, , , , , -44.91, 26.46, -9.11
AOGPS, Thu Sep 15 10:49:56 2022, 1663219196, 12.891828, 77.641367, 831.7, 15
GPGGA, Thu Sep 15 10:49:56 2022, 1663219196, 12.891828, 77.641367, 831.8, 15
GPRMC, Thu Sep 15 10:49:56 2022, 1663219196, 12.891828, 77.641367
AOATT, Thu Sep 15 10:49:56 2022, 1663219196, , , , , -76.29, 56.64, -46.20
AOGPS, Thu Sep 15 10:49:56 2022, 1663219196, 12.891828, 77.641367, 831.7, 15
GPGGA, Thu Sep 15 10:49:57 2022, 1663219197, 12.891828, 77.641367, 831.8, 15
AOGPS, Thu Sep 15 10:49:57 2022, 1663219197, 12.891828, 77.641367, 831.7, 15
GPGGA, Thu Sep 15 10:49:57 2022, 1663219197, 12.891828, 77.641367, 831.8, 15
AOATT, Thu Sep 15 10:49:57 2022, 1663219197, , , , , -166.78, 75.38, -124.73
AOGPS, Thu Sep 15 10:49:57 2022, 1663219197, 12.891828, 77.641367, 831.7, 15
GPGGA, Thu Sep 15 10:49:57 2022, 1663219197, 12.891828, 77.641367, 831.8, 15
AOGPS, Thu Sep 15 10:49:57 2022, 1663219197, 12.891828, 77.641367, 831.7, 15
GPGGA, Thu Sep 15 10:49:57 2022, 1663219197, 12.891828, 77.641367, 831.7, 15
GPRMC, Thu Sep 15 10:49:57 2022, 1663219197, 12.891828, 77.641367
AOATT, Thu Sep 15 10:49:57 2022, 1663219197, , , , , -148.51, 79.19, -122.11
AOGPS, Thu Sep 15 10:49:57 2022, 1663219197, 12.891828, 77.641367, 831.7, 15
GPGGA, Thu Sep 15 10:49:57 2022, 1663219197, 12.891828, 77.641367, 831.7, 15
GPRMC, Thu Sep 15 10:49:57 2022, 1663219197, 12.891828, 77.641367
AOATT, Thu Sep 15 10:49:57 2022, 1663219197, , , , , -142.80, 83.57, -121.85
AOGPS, Thu Sep 15 10:49:57 2022, 1663219197, 12.891828, 77.641367, 831.7, 15
GPGGA, Thu Sep 15 10:49:58 2022, 1663219198, 12.891828, 77.641367, 831.7, 15
GPRMC, Thu Sep 15 10:49:58 2022, 1663219198, 12.891828, 77.641367
AOGPS, Thu Sep 15 10:49:58 2022, 1663219198, 12.891828, 77.641367, 831.7, 15
GPGGA, Thu Sep 15 10:49:58 2022, 1663219198, 12.891828, 77.641367, 831.7, 15
GPRMC, Thu Sep 15 10:49:58 2022, 1663219198, 12.891828, 77.641367
AOGPS, Thu Sep 15 10:49:58 2022, 1663219198, 12.891828, 77.641367, 831.6, 15
GPGGA, Thu Sep 15 10:49:58 2022, 1663219198, 12.891828, 77.641367, 831.7, 15
GPRMC, Thu Sep 15 10:49:58 2022, 1663219198, 12.891828, 77.641367
AOATT, Thu Sep 15 10:49:58 2022, 1663219198, , , , , -127.41, 81.32, -116.61
AOGPS, Thu Sep 15 10:49:58 2022, 1663219198, 12.891827, 77.641367, 831.6, 15
GPGGA, Thu Sep 15 10:49:58 2022, 1663219198, 12.891828, 77.641367, 831.7, 15
AOATT, Thu Sep 15 10:49:58 2022, 1663219198, , , , , -124.35, 79.95, -112.92
AOGPS, Thu Sep 15 10:49:58 2022, 1663219198, 12.891827, 77.641367, 831.6, 15
GPGGA, Thu Sep 15 10:49:58 2022, 1663219198, 12.891827, 77.641367, 831.7, 15
GPRMC, Thu Sep 15 10:49:58 2022, 1663219198, 12.891827, 77.641367
AOGPS, Thu Sep 15 10:49:58 2022, 1663219198, 12.891827, 77.641367, 831.6, 15
GPGGA, Thu Sep 15 10:49:59 2022, 1663219199, 12.891827, 77.641367, 831.6, 15
GPRMC, Thu Sep 15 10:49:59 2022, 1663219199, 12.891827, 77.641367
AOATT, Thu Sep 15 10:49:59 2022, 1663219199, , , , , -117.31, 79.32, -112.01
AOGPS, Thu Sep 15 10:49:59 2022, 1663219199, 12.891827, 77.641367, 831.6, 15
GPGGA, Thu Sep 15 10:49:59 2022, 1663219199, 12.891827, 77.641367, 831.6, 15
GPRMC, Thu Sep 15 10:49:59 2022, 1663219199, 12.891827, 77.641367
AOGPS, Thu Sep 15 10:49:59 2022, 1663219199, 12.891827, 77.641367, 831.6, 15
GPGGA, Thu Sep 15 10:49:59 2022, 1663219199, 12.891827, 77.641367, 831.6, 15
AOGPS, Thu Sep 15 10:49:59 2022, 1663219199, 12.891827, 77.641367, 831.6, 15
GPGGA, Thu Sep 15 10:49:59 2022, 1663219199, 12.891827, 77.641367, 831.6, 15
AOATT, Thu Sep 15 10:49:59 2022, 1663219199, , , , , -110.93, 78.80, -111.79
AOGPS, Thu Sep 15 10:49:59 2022, 1663219199, 12.891827, 77.641367, 831.6, 15
GPGGA, Thu Sep 15 10:49:59 2022, 1663219199, 12.891827, 77.641367, 831.6, 15
GPRMC, Thu Sep 15 10:49:59 2022, 1663219199, 12.891827, 77.641367
AOGPS, Thu Sep 15 10:49:59 2022, 1663219199, 12.891827, 77.641367, 831.6, 15
GPGGA, Thu Sep 15 10:50:00 2022, 1663219200, 12.891827, 77.641367, 831.6, 15
GPRMC, Thu Sep 15 10:50:00 2022, 1663219200, 12.891827, 77.641367
AOATT, Thu Sep 15 10:50:00 2022, 1663219200, , , , , -109.43, 79.03, -111.91
AOGPS, Thu Sep 15 10:50:00 2022, 1663219200, 12.891826, 77.641366, 831.5, 15
GPGGA, Thu Sep 15 10:50:00 2022, 1663219200, 12.891827, 77.641367, 831.6, 15
GPRMC, Thu Sep 15 10:50:00 2022, 1663219200, 12.891827, 77.641367
AOGPS, Thu Sep 15 10:50:00 2022, 1663219200, 12.891826, 77.641366, 831.5, 15
GPGGA, Thu Sep 15 10:50:00 2022, 1663219200, 12.891827, 77.641367, 831.6, 15
GPRMC, Thu Sep 15 10:50:00 2022, 1663219200, 12.891827, 77.641367
AOGPS, Thu Sep 15 10:50:00 2022, 1663219200, 12.891826, 77.641366, 831.5, 15
GPGGA, Thu Sep 15 10:50:00 2022, 1663219200, 12.891827, 77.641366, 831.5, 15
GPRMC, Thu Sep 15 10:50:00 2022, 1663219200, 12.891827, 77.641366
AOGPS, Thu Sep 15 10:50:00 2022, 1663219200, 12.891826, 77.641366, 831.5, 15
GPGGA, Thu Sep 15 10:50:00 2022, 1663219200, 12.891826, 77.641366, 831.5, 15
AOATT, Thu Sep 15 10:50:00 2022, 1663219200, , , , , -102.66, -6.31, -93.95
AOGPS, Thu Sep 15 10:50:00 2022, 1663219200, 12.891826, 77.641366, 831.5, 15
GPGGA, Thu Sep 15 10:50:01 2022, 1663219201, 12.891827, 77.641366, 831.5, 15
GPRMC, Thu Sep 15 10:50:01 2022, 1663219201, 12.891827, 77.641366
AOATT, Thu Sep 15 10:50:01 2022, 1663219201, , , , , -102.71, -8.72, -92.59
AOGPS, Thu Sep 15 10:50:01 2022, 1663219201, 12.891826, 77.641366, 831.5, 15
GPGGA, Thu Sep 15 10:50:01 2022, 1663219201, 12.891827, 77.641366, 831.5, 15
AOGPS, Thu Sep 15 10:50:01 2022, 1663219201, 12.891825, 77.641366, 831.5, 15
GPGGA, Thu Sep 15 10:50:01 2022, 1663219201, 12.891826, 77.641366, 831.5, 15
GPRMC, Thu Sep 15 10:50:01 2022, 1663219201, 12.891826, 77.641366
AOATT, Thu Sep 15 10:50:01 2022, 1663219201, , , , , -104.51, -8.20, -93.10
AOGPS, Thu Sep 15 10:50:01 2022, 1663219201, 12.891825, 77.641366, 831.5, 15
GPGGA, Thu Sep 15 10:50:01 2022, 1663219201, 12.891826, 77.641366, 831.5, 15
GPRMC, Thu Sep 15 10:50:01 2022, 1663219201, 12.891826, 77.641366
AOATT, Thu Sep 15 10:50:01 2022, 1663219201, , , , , -101.24, -5.85, -92.04
AOGPS, Thu Sep 15 10:50:01 2022, 1663219201, 12.891825, 77.641366, 831.5, 15
GPGGA, Thu Sep 15 10:50:01 2022, 1663219201, 12.891826, 77.641366, 831.5, 15
AOATT, Thu Sep 15 10:50:01 2022, 1663219201, , , , , -99.91, -4.65, -91.62
AOGPS, Thu Sep 15 10:50:01 2022, 1663219201, 12.891825, 77.641366, 831.5, 15
GPGGA, Thu Sep 15 10:50:02 2022, 1663219202, 12.891826, 77.641366, 831.5, 15
AOATT, Thu Sep 15 10:50:02 2022, 1663219202, , , , , -88.72, 19.23, -90.31
AOGPS, Thu Sep 15 10:50:02 2022, 1663219202, 12.891825, 77.641366, 831.5, 15
GPGGA, Thu Sep 15 10:50:02 2022, 1663219202, 12.891826, 77.641366, 831.5, 15
AOATT, Thu Sep 15 10:50:02 2022, 1663219202, , , , , -86.67, 67.74, -100.18
AOGPS, Thu Sep 15 10:50:02 2022, 1663219202, 12.891825, 77.641366, 831.5, 15
GPGGA, Thu Sep 15 10:50:02 2022, 1663219202, 12.891825, 77.641366, 831.5, 15
GPRMC, Thu Sep 15 10:50:02 2022, 1663219202, 12.891825, 77.641366
AOGPS, Thu Sep 15 10:50:02 2022, 1663219202, 12.891824, 77.641366, 831.5, 15
GPGGA, Thu Sep 15 10:50:02 2022, 1663219202, 12.891825, 77.641366, 831.5, 15
GPRMC, Thu Sep 15 10:50:02 2022, 1663219202, 12.891825, 77.641366
AOGPS, Thu Sep 15 10:50:02 2022, 1663219202, 12.891824, 77.641366, 831.5, 15
GPGGA, Thu Sep 15 10:50:02 2022, 1663219202, 12.891825, 77.641366, 831.5, 15
AOGPS, Thu Sep 15 10:50:02 2022, 1663219202, 12.891824, 77.641366, 831.5, 15
GPGGA, Thu Sep 15 10:50:03 2022, 1663219203, 12.891824, 77.641366, 831.5, 15
AOGPS, Thu Sep 15 10:50:03 2022, 1663219203, 12.891824, 77.641366, 831.5, 15
GPGGA, Thu Sep 15 10:50:03 2022, 1663219203, 12.891824, 77.641366, 831.5, 15
GPRMC, Thu Sep 15 10:50:03 2022, 1663219203, 12.891824, 77.641366
AOATT, Thu Sep 15 10:50:03 2022, 1663219203, , , , , -4.04, 9.46, -28.49
AOGPS, Thu Sep 15 10:50:03 2022, 1663219203, 12.891824, 77.641366, 831.5, 15
GPGGA, Thu Sep 15 10:50:03 2022, 1663219203, 12.891824, 77.641366, 831.5, 15
GPRMC, Thu Sep 15 10:50:03 2022, 1663219203, 12.891824, 77.641366
AOGPS, Thu Sep 15 10:50:03 2022, 1663219203, 12.891824, 77.641365, 831.5, 15
GPGGA, Thu Sep 15 10:50:03 2022, 1663219203, 12.891824, 77.641366, 831.5, 15
GPRMC, Thu Sep 15 10:50:03 2022, 1663219203, 12.891824, 77.641366
AOATT, Thu Sep 15 10:50:03 2022, 1663219203, , , , , -1.79, 10.15, -28.59
AOGPS, Thu Sep 15 10:50:03 2022, 1663219203, 12.891823, 77.641365, 831.5, 15
GPGGA, Thu Sep 15 10:50:03 2022, 1663219203, 12.891824, 77.641366, 831.5, 15
GPRMC, Thu Sep 15 10:50:03 2022, 1663219203, 12.891824, 77.641366
AOATT, Thu Sep 15 10:50:03 2022, 1663219203, , , , , -0.94, 10.33, -28.83
AOGPS, Thu Sep 15 10:50:03 2022, 1663219203, 12.891823, 77.641365, 831.4, 15
GPGGA, Thu Sep 15 10:50:04 2022, 1663219204, 12.891823, 77.641366, 831.5, 15
GPRMC, Thu Sep 15 10:50:04 2022, 1663219204, 12.891823, 77.641366
AOATT, Thu Sep 15 10:50:04 2022, 1663219204, , , , , -0.71, 10.45, -29.20
AOGPS, Thu Sep 15 10:50:04 2022, 1663219204, 12.891823, 77.641365, 831.4, 15
GPGGA, Thu Sep 15 10:50:04 2022, 1663219204, 12.891823, 77.641366, 831.5, 15
GPRMC, Thu Sep 15 10:50:04 2022, 1663219204, 12.891823, 77.641366
AOGPS, Thu Sep 15 10:50:04 2022, 1663219204, 12.891823, 77.641365, 831.4, 15
GPGGA, Thu Sep 15 10:50:04 2022, 1663219204, 12.891823, 77.641365, 831.5, 15
GPRMC, Thu Sep 15 10:50:04 2022, 1663219204, 12.891823, 77.641365
AOATT, Thu Sep 15 10:50:04 2022, 1663219204, , , , , 66.17, 4.66, -22.93
AOGPS, Thu Sep 15 10:50:04 2022, 1663219204, 12.891823, 77.641365, 831.4, 15
GPGGA, Thu Sep 15 10:50:04 2022, 1663219204, 12.891823, 77.641365, 831.5, 15
GPRMC, Thu Sep 15 10:50:04 2022, 1663219204, 12.891823, 77.641365
AOATT, Thu Sep 15 10:50:04 2022, 1663219204, , , , , 90.00, 0.81, -31.51
AOGPS, Thu Sep 15 10:50:04 2022, 1663219204, 12.891823, 77.641365, 831.4, 15
GPGGA, Thu Sep 15 10:50:04 2022, 1663219204, 12.891823, 77.641365, 831.5, 15
GPRMC, Thu Sep 15 10:50:04 2022, 1663219204, 12.891823, 77.641365
AOATT, Thu Sep 15 10:50:04 2022, 1663219204, , , , , 90.18, 1.42, -32.94
AOGPS, Thu Sep 15 10:50:04 2022, 1663219204, 12.891822, 77.641365, 831.4, 15
GPGGA, Thu Sep 15 10:50:05 2022, 1663219205, 12.891823, 77.641365, 831.4, 15
GPRMC, Thu Sep 15 10:50:05 2022, 1663219205, 12.891823, 77.641365
AOGPS, Thu Sep 15 10:50:05 2022, 1663219205, 12.891822, 77.641365, 831.3, 15
GPGGA, Thu Sep 15 10:50:05 2022, 1663219205, 12.891822, 77.641365, 831.4, 15
GPRMC, Thu Sep 15 10:50:05 2022, 1663219205, 12.891822, 77.641365
AOGPS, Thu Sep 15 10:50:05 2022, 1663219205, 12.891822, 77.641365, 831.3, 15
GPGGA, Thu Sep 15 10:50:05 2022, 1663219205, 12.891822, 77.641365, 831.4, 15
AOATT, Thu Sep 15 10:50:05 2022, 1663219205, , , , , 51.89, 6.47, -34.75
AOGPS, Thu Sep 15 10:50:05 2022, 1663219205, 12.891822, 77.641365, 831.3, 15
GPGGA, Thu Sep 15 10:50:05 2022, 1663219205, 12.891822, 77.641365, 831.4, 15
AOATT, Thu Sep 15 10:50:05 2022, 1663219205, , , , , -16.61, 4.54, -42.25
AOGPS, Thu Sep 15 10:50:05 2022, 1663219205, 12.891821, 77.641365, 831.3, 15
GPGGA, Thu Sep 15 10:50:05 2022, 1663219205, 12.891821, 77.641365, 831.4, 16
GPRMC, Thu Sep 15 10:50:05 2022, 1663219205, 12.891821, 77.641365
AOATT, Thu Sep 15 10:50:05 2022, 1663219205, , , , , -13.88, 4.65, -46.97
AOGPS, Thu Sep 15 10:50:05 2022, 1663219205, 12.891821, 77.641364, 831.3, 16
GPGGA, Thu Sep 15 10:50:06 2022, 1663219206, 12.891821, 77.641365, 831.4, 16
AOATT, Thu Sep 15 10:50:06 2022, 1663219206, , , , , 2.64, 26.52, -41.37
AOGPS, Thu Sep 15 10:50:06 2022, 1663219206, 12.891821, 77.641364, 831.3, 16
GPGGA, Thu Sep 15 10:50:06 2022, 1663219206, 12.891821, 77.641365, 831.4, 16
GPRMC, Thu Sep 15 10:50:06 2022, 1663219206, 12.891821, 77.641365
AOATT, Thu Sep 15 10:50:06 2022, 1663219206, , , , , 0.78, 42.96, -35.66
AOGPS, Thu Sep 15 10:50:06 2022, 1663219206, 12.891820, 77.641364, 831.3, 16
GPGGA, Thu Sep 15 10:50:06 2022, 1663219206, 12.891821, 77.641365, 831.4, 16
GPRMC, Thu Sep 15 10:50:06 2022, 1663219206, 12.891821, 77.641365
AOGPS, Thu Sep 15 10:50:06 2022, 1663219206, 12.891820, 77.641364, 831.3, 16
GPGGA, Thu Sep 15 10:50:06 2022, 1663219206, 12.891820, 77.641364, 831.3, 16
AOGPS, Thu Sep 15 10:50:06 2022, 1663219206, 12.891820, 77.641364, 831.3, 16
GPGGA, Thu Sep 15 10:50:06 2022, 1663219206, 12.891820, 77.641364, 831.3, 16
GPRMC, Thu Sep 15 10:50:06 2022, 1663219206, 12.891820, 77.641364
AOATT, Thu Sep 15 10:50:06 2022, 1663219206, , , , , -77.89, 76.15, -122.20
AOGPS, Thu Sep 15 10:50:06 2022, 1663219206, 12.891819, 77.641364, 831.4, 16
GPGGA, Thu Sep 15 10:50:07 2022, 1663219207, 12.891820, 77.641364, 831.3, 16
AOGPS, Thu Sep 15 10:50:07 2022, 1663219207, 12.891819, 77.641364, 831.4, 16
GPGGA, Thu Sep 15 10:50:07 2022, 1663219207, 12.891819, 77.641364, 831.3, 16
GPRMC, Thu Sep 15 10:50:07 2022, 1663219207, 12.891819, 77.641364
AOGPS, Thu Sep 15 10:50:07 2022, 1663219207, 12.891818, 77.641363, 831.4, 16
GPGGA, Thu Sep 15 10:50:07 2022, 1663219207, 12.891819, 77.641364, 831.3, 16
GPRMC, Thu Sep 15 10:50:07 2022, 1663219207, 12.891819, 77.641364
AOGPS, Thu Sep 15 10:50:07 2022, 1663219207, 12.891818, 77.641363, 831.4, 16
GPGGA, Thu Sep 15 10:50:07 2022, 1663219207, 12.891818, 77.641364, 831.4, 16
GPRMC, Thu Sep 15 10:50:07 2022, 1663219207, 12.891818, 77.641364
AOGPS, Thu Sep 15 10:50:07 2022, 1663219207, 12.891817, 77.641363, 831.4, 16
GPGGA, Thu Sep 15 10:50:07 2022, 1663219207, 12.891818, 77.641364, 831.4, 16
GPRMC, Thu Sep 15 10:50:07 2022, 1663219207, 12.891818, 77.641364
AOGPS, Thu Sep 15 10:50:07 2022, 1663219207, 12.891817, 77.641363, 831.4, 16
GPGGA, Thu Sep 15 10:50:08 2022, 1663219208, 12.891817, 77.641363, 831.4, 16
GPRMC, Thu Sep 15 10:50:08 2022, 1663219208, 12.891817, 77.641363
AOATT, Thu Sep 15 10:50:08 2022, 1663219208, , , , , -4.52, 17.22, -49.69
AOGPS, Thu Sep 15 10:50:08 2022, 1663219208, 12.891817, 77.641363, 831.4, 16
GPGGA, Thu Sep 15 10:50:08 2022, 1663219208, 12.891817, 77.641363, 831.4, 16
GPRMC, Thu Sep 15 10:50:08 2022, 1663219208, 12.891817, 77.641363
AOATT, Thu Sep 15 10:50:08 2022, 1663219208, , , , , -3.17, 16.28, -49.39
AOGPS, Thu Sep 15 10:50:08 2022, 1663219208, 12.891816, 77.641363, 831.4, 16
GPGGA, Thu Sep 15 10:50:08 2022, 1663219208, 12.891816, 77.641363, 831.4, 16
AOGPS, Thu Sep 15 10:50:08 2022, 1663219208, 12.891816, 77.641363, 831.4, 16
GPGGA, Thu Sep 15 10:50:08 2022, 1663219208, 12.891816, 77.641363, 831.4, 16
AOGPS, Thu Sep 15 10:50:08 2022, 1663219208, 12.891815, 77.641362, 831.4, 16
GPGGA, Thu Sep 15 10:50:08 2022, 1663219208, 12.891815, 77.641363, 831.4, 16
GPRMC, Thu Sep 15 10:50:08 2022, 1663219208, 12.891815, 77.641363
AOGPS, Thu Sep 15 10:50:08 2022, 1663219208, 12.891815, 77.641362, 831.4, 16
GPGGA, Thu Sep 15 10:50:09 2022, 1663219209, 12.891815, 77.641362, 831.4, 16
GPRMC, Thu Sep 15 10:50:09 2022, 1663219209, 12.891815, 77.641362
AOGPS, Thu Sep 15 10:50:09 2022, 1663219209, 12.891814, 77.641362, 831.4, 16
GPGGA, Thu Sep 15 10:50:09 2022, 1663219209, 12.891814, 77.641362, 831.4, 16
GPRMC, Thu Sep 15 10:50:09 2022, 1663219209, 12.891814, 77.641362
AOATT, Thu Sep 15 10:50:09 2022, 1663219209, , , , , 0.67, 0.49, -52.81
AOGPS, Thu Sep 15 10:50:09 2022, 1663219209, 12.891814, 77.641362, 831.4, 16
GPGGA, Thu Sep 15 10:50:09 2022, 1663219209, 12.891814, 77.641362, 831.4, 16
GPRMC, Thu Sep 15 10:50:09 2022, 1663219209, 12.891814, 77.641362
AOGPS, Thu Sep 15 10:50:09 2022, 1663219209, 12.891813, 77.641362, 831.4, 16
GPGGA, Thu Sep 15 10:50:09 2022, 1663219209, 12.891814, 77.641362, 831.4, 16
GPRMC, Thu Sep 15 10:50:09 2022, 1663219209, 12.891814, 77.641362
AOGPS, Thu Sep 15 10:50:09 2022, 1663219209, 12.891813, 77.641362, 831.4, 16
GPGGA, Thu Sep 15 10:50:09 2022, 1663219209, 12.891813, 77.641362, 831.4, 16
AOATT, Thu Sep 15 10:50:09 2022, 1663219209, , , , , 0.74, 0.48, -53.11
AOGPS, Thu Sep 15 10:50:09 2022, 1663219209, 12.891813, 77.641361, 831.4, 16
GPGGA, Thu Sep 15 10:50:10 2022, 1663219210, 12.891813, 77.641362, 831.4, 16
GPRMC, Thu Sep 15 10:50:10 2022, 1663219210, 12.891813, 77.641362
AOGPS, Thu Sep 15 10:50:10 2022, 1663219210, 12.891813, 77.641361, 831.4, 16
GPGGA, Thu Sep 15 10:50:10 2022, 1663219210, 12.891813, 77.641362, 831.4, 16
AOATT, Thu Sep 15 10:50:10 2022, 1663219210, , , , , 0.80, 0.46, -53.17
AOGPS, Thu Sep 15 10:50:10 2022, 1663219210, 12.891812, 77.641361, 831.4, 16
GPGGA, Thu Sep 15 10:50:10 2022, 1663219210, 12.891812, 77.641361, 831.4, 16
GPRMC, Thu Sep 15 10:50:10 2022, 1663219210, 12.891812, 77.641361
AOATT, Thu Sep 15 10:50:10 2022, 1663219210, , , , , 0.84, 0.45, -53.18
AOGPS, Thu Sep 15 10:50:10 2022, 1663219210, 12.891812, 77.641361, 831.4, 16
GPGGA, Thu Sep 15 10:50:10 2022, 1663219210, 12.891812, 77.641361, 831.4, 16
AOATT, Thu Sep 15 10:50:10 2022, 1663219210, , , , , 0.87, 0.44, -53.20
AOGPS, Thu Sep 15 10:50:10 2022, 1663219210, 12.891811, 77.641361, 831.4, 16
GPGGA, Thu Sep 15 10:50:10 2022, 1663219210, 12.891811, 77.641361, 831.4, 16
GPRMC, Thu Sep 15 10:50:10 2022, 1663219210, 12.891811, 77.641361
AOGPS, Thu Sep 15 10:50:10 2022, 1663219210, 12.891811, 77.641361, 831.4, 16
GPGGA, Thu Sep 15 10:50:11 2022, 1663219211, 12.891811, 77.641361, 831.4, 16
AOATT, Thu Sep 15 10:50:11 2022, 1663219211, , , , , 0.92, 0.40, -53.22
AOGPS, Thu Sep 15 10:50:11 2022, 1663219211, 12.891811, 77.641361, 831.4, 16
GPGGA, Thu Sep 15 10:50:11 2022, 1663219211, 12.891811, 77.641361, 831.4, 16
GPRMC, Thu Sep 15 10:50:11 2022, 1663219211, 12.891811, 77.641361
AOGPS, Thu Sep 15 10:50:11 2022, 1663219211, 12.891810, 77.641361, 831.4, 16
GPGGA, Thu Sep 15 10:50:11 2022, 1663219211, 12.891810, 77.641361, 831.4, 16
GPRMC, Thu Sep 15 10:50:11 2022, 1663219211, 12.891810, 77.641361
AOATT, Thu Sep 15 10:50:11 2022, 1663219211, , , , , 0.95, 0.36, -53.24
AOGPS, Thu Sep 15 10:50:11 2022, 1663219211, 12.891810, 77.641361, 831.4, 16
GPGGA, Thu Sep 15 10:50:11 2022, 1663219211, 12.891810, 77.641361, 831.4, 16
AOATT, Thu Sep 15 10:50:11 2022, 1663219211, , , , , 0.96, 0.33, -53.25
AOGPS, Thu Sep 15 10:50:11 2022, 1663219211, 12.891809, 77.641360, 831.4, 16
GPGGA, Thu Sep 15 10:50:11 2022, 1663219211, 12.891810, 77.641361, 831.4, 15
GPRMC, Thu Sep 15 10:50:11 2022, 1663219211, 12.891810, 77.641361
AOGPS, Thu Sep 15 10:50:11 2022, 1663219211, 12.891809, 77.641360, 831.4, 15
GPGGA, Thu Sep 15 10:50:12 2022, 1663219212, 12.891809, 77.641360, 831.4, 15
GPRMC, Thu Sep 15 10:50:12 2022, 1663219212, 12.891809, 77.641360
AOGPS, Thu Sep 15 10:50:12 2022, 1663219212, 12.891809, 77.641360, 831.4, 15
GPGGA, Thu Sep 15 10:50:12 2022, 1663219212, 12.891809, 77.641360, 831.4, 16
AOATT, Thu Sep 15 10:50:12 2022, 1663219212, , , , , 0.99, 0.26, -53.29
AOGPS, Thu Sep 15 10:50:12 2022, 1663219212, 12.891808, 77.641360, 831.4, 16
GPGGA, Thu Sep 15 10:50:12 2022, 1663219212, 12.891809, 77.641360, 831.4, 16
AOGPS, Thu Sep 15 10:50:12 2022, 1663219212, 12.891808, 77.641360, 831.4, 16
GPGGA, Thu Sep 15 10:50:12 2022, 1663219212, 12.891808, 77.641360, 831.4, 16
GPRMC, Thu Sep 15 10:50:12 2022, 1663219212, 12.891808, 77.641360
AOATT, Thu Sep 15 10:50:12 2022, 1663219212, , , , , 1.00, 0.22, -53.30
AOGPS, Thu Sep 15 10:50:12 2022, 1663219212, 12.891808, 77.641360, 831.4, 16
GPGGA, Thu Sep 15 10:50:12 2022, 1663219212, 12.891808, 77.641360, 831.4, 16
GPRMC, Thu Sep 15 10:50:12 2022, 1663219212, 12.891808, 77.641360
AOGPS, Thu Sep 15 10:50:12 2022, 1663219212, 12.891807, 77.641360, 831.4, 16
GPGGA, Thu Sep 15 10:50:13 2022, 1663219213, 12.891807, 77.641360, 831.4, 16
AOATT, Thu Sep 15 10:50:13 2022, 1663219213, , , , , 1.01, 0.18, -53.30
AOGPS, Thu Sep 15 10:50:13 2022, 1663219213, 12.891807, 77.641359, 831.4, 16
GPGGA, Thu Sep 15 10:50:13 2022, 1663219213, 12.891807, 77.641360, 831.4, 16
GPRMC, Thu Sep 15 10:50:13 2022, 1663219213, 12.891807, 77.641360
AOGPS, Thu Sep 15 10:50:13 2022, 1663219213, 12.891806, 77.641359, 831.5, 16
GPGGA, Thu Sep 15 10:50:13 2022, 1663219213, 12.891806, 77.641360, 831.4, 16
AOGPS, Thu Sep 15 10:50:13 2022, 1663219213, 12.891806, 77.641359, 831.5, 16
GPGGA, Thu Sep 15 10:50:13 2022, 1663219213, 12.891806, 77.641359, 831.4, 15
AOGPS, Thu Sep 15 10:50:13 2022, 1663219213, 12.891806, 77.641359, 831.5, 15
GPGGA, Thu Sep 15 10:50:13 2022, 1663219213, 12.891806, 77.641359, 831.4, 15
AOGPS, Thu Sep 15 10:50:13 2022, 1663219213, 12.891805, 77.641359, 831.5, 15
GPGGA, Thu Sep 15 10:50:14 2022, 1663219214, 12.891805, 77.641359, 831.4, 15
GPRMC, Thu Sep 15 10:50:14 2022, 1663219214, 12.891805, 77.641359
AOATT, Thu Sep 15 10:50:14 2022, 1663219214, , , , , 1.03, 0.13, -53.30
AOGPS, Thu Sep 15 10:50:14 2022, 1663219214, 12.891804, 77.641359, 831.5, 15
GPGGA, Thu Sep 15 10:50:14 2022, 1663219214, 12.891805, 77.641359, 831.5, 15
AOGPS, Thu Sep 15 10:50:14 2022, 1663219214, 12.891804, 77.641359, 831.5, 15
GPGGA, Thu Sep 15 10:50:14 2022, 1663219214, 12.891804, 77.641359, 831.5, 15
AOATT, Thu Sep 15 10:50:14 2022, 1663219214, , , , , 1.02, 0.11, -53.33
AOGPS, Thu Sep 15 10:50:14 2022, 1663219214, 12.891804, 77.641358, 831.6, 15
GPGGA, Thu Sep 15 10:50:14 2022, 1663219214, 12.891804, 77.641359, 831.5, 15
AOGPS, Thu Sep 15 10:50:14 2022, 1663219214, 12.891803, 77.641358, 831.6, 15
GPGGA, Thu Sep 15 10:50:14 2022, 1663219214, 12.891804, 77.641358, 831.5, 15
GPRMC, Thu Sep 15 10:50:14 2022, 1663219214, 12.891804, 77.641358
AOGPS, Thu Sep 15 10:50:14 2022, 1663219214, 12.891803, 77.641358, 831.6, 15
GPGGA, Thu Sep 15 10:50:15 2022, 1663219215, 12.891803, 77.641358, 831.5, 15
AOGPS, Thu Sep 15 10:50:15 2022, 1663219215, 12.891803, 77.641358, 831.6, 15
GPGGA, Thu Sep 15 10:50:15 2022, 1663219215, 12.891803, 77.641358, 831.5, 15
AOATT, Thu Sep 15 10:50:15 2022, 1663219215, , , , , 1.03, 0.09, -53.36
AOGPS, Thu Sep 15 10:50:15 2022, 1663219215, 12.891802, 77.641358, 831.6, 15
GPGGA, Thu Sep 15 10:50:15 2022, 1663219215, 12.891802, 77.641358, 831.5, 15
AOATT, Thu Sep 15 10:50:15 2022, 1663219215, , , , , 1.04, 0.11, -54.38
AOGPS, Thu Sep 15 10:50:15 2022, 1663219215, 12.891802, 77.641358, 831.6, 15
GPRMC, Thu Sep 15 10:50:16 2022, 1663219216, 12.891800, 77.641357
AOATT, Thu Sep 15 10:50:16 2022, 1663219216, , , , , 1.04, 0.09, -54.41
AOGPS, Thu Sep 15 10:50:16 2022, 1663219216, 12.891799, 77.641357, 831.7, 15
GPGGA, Thu Sep 15 10:50:17 2022, 1663219217, 12.891799, 77.641357, 831.6, 16
AOATT, Thu Sep 15 10:50:17 2022, 1663219217, , , , , 1.04, 0.09, -54.41
AOGPS, Thu Sep 15 10:50:17 2022, 1663219217, 12.891799, 77.641357, 831.8, 16
GPGGA, Thu Sep 15 10:50:17 2022, 1663219217, 12.891799, 77.641357, 831.7, 16
AOATT, Thu Sep 15 10:50:17 2022, 1663219217, , , , , 1.04, 0.09, -54.41
AOGPS, Thu Sep 15 10:50:17 2022, 1663219217, 12.891798, 77.641357, 831.8, 16
GPGGA, Thu Sep 15 10:50:17 2022, 1663219217, 12.891798, 77.641357, 831.7, 16
AOATT, Thu Sep 15 10:50:17 2022, 1663219217, , , , , 1.04, 0.09, -54.42
AOGPS, Thu Sep 15 10:50:17 2022, 1663219217, 12.891798, 77.641357, 831.8, 16
GPGGA, Thu Sep 15 10:50:17 2022, 1663219217, 12.891798, 77.641357, 831.7, 16
GPRMC, Thu Sep 15 10:50:17 2022, 1663219217, 12.891798, 77.641357
AOATT, Thu Sep 15 10:50:17 2022, 1663219217, , , , , 1.04, 0.09, -54.42
AOGPS, Thu Sep 15 10:50:17 2022, 1663219217, 12.891797, 77.641357, 831.8, 16
GPGGA, Thu Sep 15 10:50:17 2022, 1663219217, 12.891798, 77.641357, 831.7, 15
GPRMC, Thu Sep 15 10:50:17 2022, 1663219217, 12.891798, 77.641357
AOATT, Thu Sep 15 10:50:17 2022, 1663219217, , , , , 1.04, 0.08, -54.42
AOGPS, Thu Sep 15 10:50:17 2022, 1663219217, 12.891797, 77.641357, 831.8, 15
GPGGA, Thu Sep 15 10:50:18 2022, 1663219218, 12.891797, 77.641357, 831.7, 16
GPRMC, Thu Sep 15 10:50:18 2022, 1663219218, 12.891797, 77.641357
AOATT, Thu Sep 15 10:50:18 2022, 1663219218, , , , , 1.04, 0.09, -54.42
AOGPS, Thu Sep 15 10:50:18 2022, 1663219218, 12.891797, 77.641357, 831.8, 16
GPGGA, Thu Sep 15 10:50:18 2022, 1663219218, 12.891797, 77.641357, 831.7, 16
GPRMC, Thu Sep 15 10:50:18 2022, 1663219218, 12.891797, 77.641357
AOATT, Thu Sep 15 10:50:18 2022, 1663219218, , , , , 1.04, 0.08, -54.42
AOGPS, Thu Sep 15 10:50:18 2022, 1663219218, 12.891796, 77.641357, 831.9, 16
GPGGA, Thu Sep 15 10:50:18 2022, 1663219218, 12.891796, 77.641357, 831.8, 16
AOATT, Thu Sep 15 10:50:18 2022, 1663219218, , , , , 1.04, 0.08, -54.42
AOGPS, Thu Sep 15 10:50:18 2022, 1663219218, 12.891796, 77.641357, 831.9, 16
GPGGA, Thu Sep 15 10:50:18 2022, 1663219218, 12.891796, 77.641357, 831.8, 16
GPRMC, Thu Sep 15 10:50:18 2022, 1663219218, 12.891796, 77.641357
AOATT, Thu Sep 15 10:50:18 2022, 1663219218, , , , , 1.04, 0.08, -54.42
AOGPS, Thu Sep 15 10:50:18 2022, 1663219218, 12.891796, 77.641357, 831.9, 16
GPGGA, Thu Sep 15 10:50:18 2022, 1663219218, 12.891796, 77.641357, 831.8, 16
GPRMC, Thu Sep 15 10:50:18 2022, 1663219218, 12.891796, 77.641357
AOATT, Thu Sep 15 10:50:18 2022, 1663219218, , , , , 1.05, 0.08, -54.42
AOGPS, Thu Sep 15 10:50:18 2022, 1663219218, 12.891796, 77.641356, 831.9, 16
GPGGA, Thu Sep 15 10:50:19 2022, 1663219219, 12.891796, 77.641356, 831.8, 16
AOATT, Thu Sep 15 10:50:19 2022, 1663219219, , , , , 1.05, 0.08, -54.43
AOGPS, Thu Sep 15 10:50:19 2022, 1663219219, 12.891796, 77.641356, 831.9, 16
GPGGA, Thu Sep 15 10:50:19 2022, 1663219219, 12.891795, 77.641356, 831.8, 16
AOATT, Thu Sep 15 10:50:19 2022, 1663219219, , , , , 1.05, 0.09, -54.43
AOGPS, Thu Sep 15 10:50:19 2022, 1663219219, 12.891795, 77.641356, 832.0, 16
GPGGA, Thu Sep 15 10:50:19 2022, 1663219219, 12.891795, 77.641356, 831.9, 16
AOATT, Thu Sep 15 10:50:19 2022, 1663219219, , , , , 1.05, 0.09, -54.43
AOGPS, Thu Sep 15 10:50:19 2022, 1663219219, 12.891795, 77.641356, 832.0, 16
GPGGA, Thu Sep 15 10:50:19 2022, 1663219219, 12.891795, 77.641356, 831.9, 16
GPRMC, Thu Sep 15 10:50:19 2022, 1663219219, 12.891795, 77.641356
AOATT, Thu Sep 15 10:50:19 2022, 1663219219, , , , , 1.05, 0.09, -54.43
AOGPS, Thu Sep 15 10:50:19 2022, 1663219219, 12.891794, 77.641356, 832.0, 16
GPGGA, Thu Sep 15 10:50:19 2022, 1663219219, 12.891794, 77.641356, 831.9, 16
GPRMC, Thu Sep 15 10:50:19 2022, 1663219219, 12.891794, 77.641356
AOATT, Thu Sep 15 10:50:19 2022, 1663219219, , , , , 1.05, 0.09, -54.43
AOGPS, Thu Sep 15 10:50:19 2022, 1663219219, 12.891794, 77.641356, 832.0, 16
GPGGA, Thu Sep 15 10:50:20 2022, 1663219220, 12.891794, 77.641356, 831.9, 16
GPRMC, Thu Sep 15 10:50:20 2022, 1663219220, 12.891794, 77.641356
AOATT, Thu Sep 15 10:50:20 2022, 1663219220, , , , , 1.05, 0.09, -54.43
AOGPS, Thu Sep 15 10:50:20 2022, 1663219220, 12.891794, 77.641356, 832.1, 16
GPGGA, Thu Sep 15 10:50:20 2022, 1663219220, 12.891794, 77.641356, 832.0, 16
GPRMC, Thu Sep 15 10:50:20 2022, 1663219220, 12.891794, 77.641356
AOGPS, Thu Sep 15 10:50:20 2022, 1663219220, 12.891793, 77.641356, 832.1, 16
GPGGA, Thu Sep 15 10:50:20 2022, 1663219220, 12.891793, 77.641356, 832.0, 16
GPRMC, Thu Sep 15 10:50:20 2022, 1663219220, 12.891793, 77.641356
AOGPS, Thu Sep 15 10:50:20 2022, 1663219220, 12.891793, 77.641356, 832.1, 16
GPGGA, Thu Sep 15 10:50:20 2022, 1663219220, 12.891793, 77.641356, 832.0, 16
GPRMC, Thu Sep 15 10:50:20 2022, 1663219220, 12.891793, 77.641356
AOGPS, Thu Sep 15 10:50:20 2022, 1663219220, 12.891792, 77.641356, 832.2, 16
GPGGA, Thu Sep 15 10:50:20 2022, 1663219220, 12.891793, 77.641356, 832.0, 15
GPRMC, Thu Sep 15 10:50:20 2022, 1663219220, 12.891793, 77.641356
AOGPS, Thu Sep 15 10:50:20 2022, 1663219220, 12.891792, 77.641356, 832.2, 15
GPGGA, Thu Sep 15 10:50:21 2022, 1663219221, 12.891792, 77.641356, 832.1, 16
AOGPS, Thu Sep 15 10:50:21 2022, 1663219221, 12.891792, 77.641356, 832.3, 16
GPGGA, Thu Sep 15 10:50:21 2022, 1663219221, 12.891792, 77.641356, 832.1, 16
GPRMC, Thu Sep 15 10:50:21 2022, 1663219221, 12.891792, 77.641356
AOATT, Thu Sep 15 10:50:21 2022, 1663219221, , , , , 1.05, 0.09, -54.43
AOGPS, Thu Sep 15 10:50:21 2022, 1663219221, 12.891792, 77.641355, 832.3, 16
GPGGA, Thu Sep 15 10:50:21 2022, 1663219221, 12.891792, 77.641355, 832.2, 15
GPRMC, Thu Sep 15 10:50:21 2022, 1663219221, 12.891792, 77.641355
AOATT, Thu Sep 15 10:50:21 2022, 1663219221, , , , , 1.06, 0.09, -54.43
AOGPS, Thu Sep 15 10:50:21 2022, 1663219221, 12.891791, 77.641355, 832.3, 15
GPGGA, Thu Sep 15 10:50:21 2022, 1663219221, 12.891791, 77.641355, 832.2, 15
AOATT, Thu Sep 15 10:50:21 2022, 1663219221, , , , , 1.06, 0.09, -54.43
AOGPS, Thu Sep 15 10:50:21 2022, 1663219221, 12.891791, 77.641355, 832.4, 15
GPGGA, Thu Sep 15 10:50:21 2022, 1663219221, 12.891791, 77.641355, 832.2, 15
GPRMC, Thu Sep 15 10:50:21 2022, 1663219221, 12.891791, 77.641355
AOATT, Thu Sep 15 10:50:21 2022, 1663219221, , , , , 1.06, 0.09, -54.44
AOGPS, Thu Sep 15 10:50:21 2022, 1663219221, 12.891791, 77.641355, 832.4, 15
GPGGA, Thu Sep 15 10:50:22 2022, 1663219222, 12.891791, 77.641355, 832.3, 15
GPRMC, Thu Sep 15 10:50:22 2022, 1663219222, 12.891791, 77.641355
AOATT, Thu Sep 15 10:50:22 2022, 1663219222, , , , , 1.06, 0.09, -54.44
AOGPS, Thu Sep 15 10:50:22 2022, 1663219222, 12.891791, 77.641355, 832.4, 15
GPGGA, Thu Sep 15 10:50:22 2022, 1663219222, 12.891791, 77.641355, 832.3, 16
AOATT, Thu Sep 15 10:50:22 2022, 1663219222, , , , , 1.06, 0.09, -54.44
AOGPS, Thu Sep 15 10:50:22 2022, 1663219222, 12.891790, 77.641355, 832.4, 16
GPGGA, Thu Sep 15 10:50:22 2022, 1663219222, 12.891790, 77.641355, 832.3, 16
AOATT, Thu Sep 15 10:50:22 2022, 1663219222, , , , , 1.06, 0.09, -54.44
AOGPS, Thu Sep 15 10:50:22 2022, 1663219222, 12.891790, 77.641355, 832.5, 16
GPGGA, Thu Sep 15 10:50:22 2022, 1663219222, 12.891790, 77.641355, 832.4, 16
GPRMC, Thu Sep 15 10:50:22 2022, 1663219222, 12.891790, 77.641355
AOATT, Thu Sep 15 10:50:22 2022, 1663219222, , , , , 1.06, 0.09, -54.44
AOGPS, Thu Sep 15 10:50:22 2022, 1663219222, 12.891789, 77.641355, 832.5, 16
GPGGA, Thu Sep 15 10:50:22 2022, 1663219222, 12.891790, 77.641355, 832.4, 16
GPRMC, Thu Sep 15 10:50:22 2022, 1663219222, 12.891790, 77.641355
AOATT, Thu Sep 15 10:50:22 2022, 1663219222, , , , , 1.06, 0.09, -54.44
AOGPS, Thu Sep 15 10:50:22 2022, 1663219222, 12.891789, 77.641355, 832.6, 16
GPGGA, Thu Sep 15 10:50:23 2022, 1663219223, 12.891790, 77.641355, 832.4, 16
AOATT, Thu Sep 15 10:50:23 2022, 1663219223, , , , , 1.06, 0.09, -54.44
AOGPS, Thu Sep 15 10:50:23 2022, 1663219223, 12.891789, 77.641355, 832.6, 16
GPGGA, Thu Sep 15 10:50:23 2022, 1663219223, 12.891789, 77.641355, 832.5, 16
GPRMC, Thu Sep 15 10:50:23 2022, 1663219223, 12.891789, 77.641355
AOATT, Thu Sep 15 10:50:23 2022, 1663219223, , , , , 1.06, 0.09, -54.44
AOGPS, Thu Sep 15 10:50:23 2022, 1663219223, 12.891789, 77.641355, 832.6, 16
GPGGA, Thu Sep 15 10:50:23 2022, 1663219223, 12.891789, 77.641355, 832.5, 16
AOATT, Thu Sep 15 10:50:23 2022, 1663219223, , , , , 1.05, 0.09, -54.44
AOGPS, Thu Sep 15 10:50:23 2022, 1663219223, 12.891788, 77.641354, 832.7, 16
GPGGA, Thu Sep 15 10:50:23 2022, 1663219223, 12.891788, 77.641354, 832.5, 16
AOATT, Thu Sep 15 10:50:23 2022, 1663219223, , , , , 1.06, 0.10, -54.44
AOGPS, Thu Sep 15 10:50:23 2022, 1663219223, 12.891788, 77.641354, 832.7, 16
GPGGA, Thu Sep 15 10:50:23 2022, 1663219223, 12.891788, 77.641354, 832.5, 15
AOATT, Thu Sep 15 10:50:23 2022, 1663219223, , , , , 1.06, 0.09, -54.44
AOGPS, Thu Sep 15 10:50:23 2022, 1663219223, 12.891788, 77.641354, 832.7, 15
GPGGA, Thu Sep 15 10:50:24 2022, 1663219224, 12.891788, 77.641354, 832.6, 16
GPRMC, Thu Sep 15 10:50:24 2022, 1663219224, 12.891788, 77.641354
AOATT, Thu Sep 15 10:50:24 2022, 1663219224, , , , , 1.06, 0.09, -54.44
AOGPS, Thu Sep 15 10:50:24 2022, 1663219224, 12.891787, 77.641354, 832.8, 16
GPGGA, Thu Sep 15 10:50:24 2022, 1663219224, 12.891787, 77.641354, 832.6, 16
GPRMC, Thu Sep 15 10:50:24 2022, 1663219224, 12.891787, 77.641354
AOATT, Thu Sep 15 10:50:24 2022, 1663219224, , , , , 1.06, 0.09, -54.44
AOGPS, Thu Sep 15 10:50:24 2022, 1663219224, 12.891787, 77.641354, 832.8, 16
